nome_propriedade,tipo,endereco,cidade,estado,cep,condado,lat,lon,status,avaliacao_media,total_avaliacoes,telefone,website
Chain O’ Lakes Campground,campground,"Campground, Albion, IN 46701, USA",Albion,IN,46701,Noble County,41.3291450,-85.3710404,OPERATIONAL,4.6,312,(260) 636-2654,https://www.in.gov/dnr/state-parks/parks-lakes/chain-o-lakes-state-park/
Orchard Ridge Estates,rv_park,"305 S 4th St, Albion, IN 46701, USA",Albion,IN,46701,Noble County,41.3938931,-85.4140058,OPERATIONAL,5.0,1,(201) 989-6102,
Shady Haven Resort,rv_park,"3100 W Baseline Rd, Albion, IN 46701, USA",Albion,IN,46701,Noble County,41.3532333,-85.4846038,OPERATIONAL,4.1,49,,
Hoosierland Campground,campground,"2641 E 1300 N, Alexandria, IN 46001, USA",Alexandria,IN,46001,Madison County,40.2907379,-85.6220401,OPERATIONAL,4.4,189,(765) 724-2530,http://hoosierlandcampground.com/
Anderson Manufactured Home Community,rv_park,"328 W 53rd St #27, Anderson, IN 46013, USA",Anderson,IN,46013,Madison County,40.0618327,-85.6836357,OPERATIONAL,3.9,97,(765) 274-5554,https://endeavorcommunities.com/community/anderson-manufactured-home-community/
Cottonwood RV Park,rv_park,"2206 S Rangeline Rd, Anderson, IN 46012, USA",Anderson,IN,46012,Madison County,40.0951982,-85.6333499,OPERATIONAL,5.0,4,(765) 208-1673,
Countryside Village,rv_park,"278 W 375 N, Anderson, IN 46012, USA",Anderson,IN,46012,Madison County,40.1623843,-85.6772584,OPERATIONAL,3.3,30,(765) 606-9928,
Deerfield Run Pointe Mobile Home Park,rv_park,"2735 Autumn Lake Dr, Anderson, IN 46017, USA",Anderson,IN,46017,Madison County,40.0720190,-85.6206516,OPERATIONAL,3.5,154,(765) 643-4580,https://yougotithomes.com/community/deerfield-run-pointe/
Edgewood MHP,rv_park,"1810 W 53rd St, Anderson, IN 46013, USA",Anderson,IN,46013,Madison County,40.0621686,-85.7065961,OPERATIONAL,3.1,37,(765) 641-9994,
Mounds Mobile Home Park,rv_park,"2721 Mounds Rd, Anderson, IN 46016, USA",Anderson,IN,46016,Madison County,40.0887985,-85.6418457,OPERATIONAL,3.2,37,(765) 642-5939,
Mounds State Park Family Campgrounds,campground,"Anderson, IN 46017, USA",Anderson,IN,46017,Madison County,40.1065342,-85.6159483,OPERATIONAL,4.6,103,(765) 642-6627,https://indianastateparks.reserveamerica.com/camping/mounds-state-park/r/campgroundDetails.do?contractCode=IN&parkId=570027
Muncie RV Resort,rv_park,"3230 E 75 N, Anderson, IN 46017, USA",Anderson,IN,46017,Madison County,40.1170624,-85.6105095,OPERATIONAL,4.2,429,(765) 259-3305,https://rjourney.com/park/in/muncie/?utm_source=gmb&utm_medium=organic&utm_campaign=muncie
Redbud Estates,rv_park,"1800 W 38th St, Anderson, IN 46013, USA",Anderson,IN,46013,Madison County,40.0772828,-85.7023465,OPERATIONAL,3.5,83,(765) 644-4479,https://umh.com/community/redbud-estates/
Rustic Manor Manufactured Home Community,rv_park,"1625 B St, Anderson, IN 46016, USA",Anderson,IN,46016,Madison County,40.0986983,-85.6608690,OPERATIONAL,3.4,70,(765) 615-4270,http://rusticmanormhp.com/
Shady Rest Mobile Parks,rv_park,"325 E Cross St #11, Anderson, IN 46012, USA",Anderson,IN,46012,Madison County,40.1349151,-85.6722953,OPERATIONAL,3.5,20,(317) 764-8313,
Apple Orchard Primitive Campground,campground,"New Holland Road, Andrews, IN 46702, USA",Andrews,IN,46702,Huntington County,40.7661924,-85.6314772,OPERATIONAL,4.5,71,(260) 468-2125,http://www.in.gov/dnr/parklake/2952.htm
Lost Bridge State Recreation Area,,"9214 Lost Bridge Rd W, Andrews, IN 46702, USA",Andrews,IN,46702,,40.7697719,-85.6268729,OPERATIONAL,4.7,423,(260) 468-2125,http://www.in.gov/dnr/parklake/2952.htm
Salamonie Lake Modern Campground,campground,"9214 Lost Bridge Rd W, Andrews, IN 46702, USA",Andrews,IN,46702,Huntington County,40.7744707,-85.6396901,OPERATIONAL,4.6,135,(260) 468-2125,https://www.reserveamerica.com/explore/salamonie-lake/IN/570041/overview
Angola / Hogback Lake KOA Holiday,rv_park,"5251 US-20, Angola, IN 46703, USA",Angola,IN,46703,Steuben County,41.6333200,-85.0866300,OPERATIONAL,4.0,725,(260) 665-5353,https://koa.com/campgrounds/angola/?utm_source=google&utm_medium=organic&utm_campaign=gbp
Camp Sack-In,campground,"8740 E 40 S, Angola, IN 46703, USA",Angola,IN,46703,Steuben County,41.6417250,-84.8243940,OPERATIONAL,4.3,108,(260) 665-5166,http://www.campsack-in.com/
Happy Acres Campground,rv_park,"1940 S 300 W, Angola, IN 46703, USA",Angola,IN,46703,Steuben County,41.6145224,-85.0456061,OPERATIONAL,4.7,275,(260) 665-9843,http://camphappyacres.com/
Lake James Campground,campground,"3545 N Bay View Rd, Angola, IN 46703, USA",Angola,IN,46703,Steuben County,41.6937720,-85.0390076,OPERATIONAL,4.4,63,(419) 822-3744,
Silver Lake RV & MH Estates,rv_park,"4305 US-20, Angola, IN 46703, USA",Angola,IN,46703,Steuben County,41.6354424,-85.0704441,OPERATIONAL,3.3,107,(260) 665-3783,
West Otter Lake Campground,campground,"160 Ln 110 West Otter Lake, Angola, IN 46703, USA",Angola,IN,46703,Steuben County,41.6411926,-85.1653632,OPERATIONAL,4.4,82,(260) 665-8587,http://www.westotterlakecampground.com/
Colonial Court Mobile Home Park & Colonial Home Sales,rv_park,"205 W Marshall St, Argos, IN 46501, USA",Argos,IN,46501,Marshall County,41.2438926,-86.2532501,OPERATIONAL,4.1,53,(574) 892-5200,https://colonialcourtmhp.com/
"Klumpe Family Kampground, LLC",campground,"5509 N 200 E, Attica, IN 47918, USA",Attica,IN,47918,Warren County,40.3964202,-87.2818129,OPERATIONAL,4.8,79,(765) 490-1371,https://klumpefamilykampground.com/
Off The Trail Vacation Rentals & Campground,campground,"3970 N Xavier Rd, Attica, IN 47918, USA",Attica,IN,47918,Fountain County,40.2717129,-87.2613886,OPERATIONAL,4.6,285,(765) 762-6189,http://www.offthetrailcampground.com/
Auburn Crossing,rv_park,"1112 W Seventh St, Auburn, IN 46706, USA",Auburn,IN,46706,DeKalb County,41.3674894,-85.0765089,OPERATIONAL,3.7,144,(260) 508-3096,https://www.auburncrossingmhc.com/
Fireside Resort RV Park,rv_park,"5612 Co Rd 11A, Auburn, IN 46706, USA",Auburn,IN,46706,DeKalb County,41.3290006,-85.0904474,OPERATIONAL,3.6,160,(260) 925-6747,http://www.firesideresort.com/
CampShore Camp Ground,campground,"8548 IN-56, Aurora, IN 47001, USA",Aurora,IN,47001,Ohio County,38.9969377,-84.8578757,OPERATIONAL,4.3,49,(812) 438-2135,http://campshoreontheriver.com/
Beechwood Pointe Austin Mobile Home Park,rv_park,"1301 W York Rd Lot 6, Austin, IN 47102, USA",Austin,IN,47102,Scott County,38.7349143,-85.8238805,OPERATIONAL,3.6,72,(812) 480-2823,https://yougotithomes.com/community/beechwood-pointe/
Avon Village Mobile Home Park,rv_park,"235 Avon Village Dr, Avon, IN 46123, USA",Avon,IN,46123,Hendricks County,39.7613380,-86.3558989,OPERATIONAL,3.9,128,(317) 271-0795,http://www.avonvillagemhc.com/
Batesville KOA Journey,rv_park,"7234 IN-46, Batesville, IN 47006, USA",Batesville,IN,47006,Ripley County,39.2754666,-85.1313178,OPERATIONAL,4.1,319,(800) 562-3418,https://koa.com/campgrounds/batesville/?utm_source=google&utm_medium=organic&utm_campaign=gbp
Thousand Trails Indian Lakes,rv_park,"7234 IN-46, Batesville, IN 47006, USA",Batesville,IN,47006,Ripley County,39.2773905,-85.1281241,OPERATIONAL,3.7,675,(812) 934-5496,https://thousandtrails.com/indiana/indian-lakes-rv-campground/?utm_source=yext&utm_medium=directory&utm_campaign=Yext%20Directory%20Listing
Camp Bedford,campground,"33 Church Camp Rd, Bedford, IN 47421, USA",Bedford,IN,47421,Lawrence County,38.8156930,-86.4860360,OPERATIONAL,4.7,52,(812) 329-1222,https://campbedford.com/
Free Spirit Campground,rv_park,"4140 Erie Church Rd, Bedford, IN 47421, USA",Bedford,IN,47421,Lawrence County,38.8883423,-86.3413332,OPERATIONAL,4.5,94,(812) 834-6164,https://www.facebook.com/Free-Spirit-Campground-100343968362246/
Town & Country Mobile Home Park,rv_park,"3104 29th St, Bedford, IN 47421, USA",Bedford,IN,47421,Lawrence County,38.8459061,-86.5131752,OPERATIONAL,3.3,11,(812) 275-4656,
Camp Livingston,campground,"4998 Nell Lee Rd, Bennington, IN 47011, USA",Bennington,IN,47011,Switzerland County,38.8502345,-85.1116044,OPERATIONAL,4.6,37,(812) 427-2202,http://www.camplivingston.com/
Drakes Ridge Rustic Nudist Retreat,campground,"9641 Drakes Ridge Rd, Bennington, IN 47011, USA",Bennington,IN,47011,Switzerland County,38.8273970,-85.1063800,OPERATIONAL,4.5,60,(812) 427-3914,http://www.drakesridge.com/
Berne Mobile Home Park,rv_park,"345 Jackson St, Berne, IN 46711, USA",Berne,IN,46711,Adams County,40.6606597,-84.9464903,OPERATIONAL,4.7,26,(260) 209-4118,https://knightscommunities.com/berne-indiana-berne-mobile-home-park/
Patoka Lake,campground,"3084 Dillard Rd, Birdseye, IN 47513, USA",Birdseye,IN,47513,Crawford County,38.3837010,-86.6439988,OPERATIONAL,4.6,309,(812) 338-5589,http://www.in.gov/dnr/parklake/2953.htm
Whispering Meadows,rv_park,"9307 N Zimmerman Rd, Birdseye, IN 47513, USA",Birdseye,IN,47513,Crawford County,38.3763850,-86.6500685,OPERATIONAL,4.7,24,(970) 238-0555,
Wildridge RV Resort,rv_park,"2905 Dillard Rd, Birdseye, IN 47513, USA",Birdseye,IN,47513,Crawford County,38.3787249,-86.6442091,OPERATIONAL,4.6,108,(812) 685-2489,http://www.wildridgervresort.com/
Peaceful Waters Campground,campground,"3325 US-41, Bloomingdale, IN 47832, USA",Bloomingdale,IN,47832,Parke County,39.8164610,-87.2361980,OPERATIONAL,4.5,300,(765) 592-6458,https://www.peacefulwaterscampground.com/
Turkey Run Canoe & Camping,campground,"870 IN-47, Bloomingdale, IN 47832, USA",Bloomingdale,IN,47832,Parke County,39.8781090,-87.2259220,OPERATIONAL,4.1,403,(765) 597-2029,https://www.turkeyruncanoeandcamping.com/
Arlington Valley,rv_park,"1600 N Willis Dr, Bloomington, IN 47404, USA",Bloomington,IN,47404,Monroe County,39.1820099,-86.5439104,OPERATIONAL,3.5,289,(812) 339-5392,https://www.mhvillage.com/Communities/MobileHomePark.php?key=11762
Country Club Terrace Mobile Home Park,rv_park,"400 W Terrace Dr, Bloomington, IN 47403, USA",Bloomington,IN,47403,Monroe County,39.1280479,-86.5369567,OPERATIONAL,3.3,34,(812) 269-1105,
E&N Mobile Home Community,rv_park,"900 N Curry Pike lot 7, Bloomington, IN 47404, USA",Bloomington,IN,47404,Monroe County,39.1755714,-86.5820239,OPERATIONAL,3.5,50,(812) 269-8842,http://openmgmt.com/e&n
Garden Hill Mobile Home Park,rv_park,"4111 W Vernal Pike, Bloomington, IN 47404, USA",Bloomington,IN,47404,Monroe County,39.1771659,-86.5815505,OPERATIONAL,3.4,99,(812) 336-8004,
Heatherwood Mobile Home Community,rv_park,"3660 S Leonard Springs Rd, Bloomington, IN 47403, USA",Bloomington,IN,47403,Monroe County,39.1270298,-86.5839611,OPERATIONAL,3.3,234,(812) 200-4042,https://docs.google.com/forms/d/1Y05t3kdzzebxdryX74ffWUjhSZbjx62srSmCLJ0L0xw/edit
Jami Lou Seasonal RV Campground,campground,"3800 State Hwy 446, Bloomington, IN 47401, USA",Bloomington,IN,47401,Monroe County,39.1233362,-86.4347305,OPERATIONAL,5.0,10,(812) 994-1662,http://jamiloucampground.com/
Jellystone Park™ Lake Monroe,rv_park,"9396 S Strain Ridge Rd, Bloomington, IN 47401, USA",Bloomington,IN,47401,Monroe County,39.0259728,-86.5230524,OPERATIONAL,4.4,684,(812) 824-3322,https://jellystonelakemonroe.com/?utm_source=google&utm_medium=organic&utm_campaign=gbp_listing
Knightridge Campground,campground,"4398 State Hwy 446, Bloomington, IN 47401, USA",Bloomington,IN,47401,Monroe County,39.1134074,-86.4313621,OPERATIONAL,4.5,31,(812) 318-0050,http://www.theknightridge.com/
Lake Monroe Village,campground,"8107 S Fairfax Rd, Bloomington, IN 47401, USA",Bloomington,IN,47401,Monroe County,39.0518442,-86.4940584,OPERATIONAL,4.3,252,(812) 287-6855,http://www.lakemonroevillage.com/
Lamplighter Estates Mobile,rv_park,"1700 S Curry Pike, Bloomington, IN 47403, USA",Bloomington,IN,47403,Monroe County,39.1504919,-86.5848516,OPERATIONAL,3.8,48,(812) 825-9628,
Longview Mobile Home Park,rv_park,"345 S Muller Pkwy, Bloomington, IN 47403, USA",Bloomington,IN,47403,Monroe County,39.1627930,-86.5635413,OPERATIONAL,4.0,47,(812) 955-5003,http://longviewbloomington.com/
Mackenzie Park,rv_park,"2005 S Rogers St, Bloomington, IN 47403, USA",Bloomington,IN,47403,Monroe County,39.1459379,-86.5382961,OPERATIONAL,4.0,24,(812) 336-6900,http://www.shaw-rentals.com/
Monroe Causeway Campground,campground,"7407 State Hwy 446, Bloomington, IN 47401, USA",Bloomington,IN,47401,Monroe County,39.0645469,-86.4089134,OPERATIONAL,4.7,48,(812) 837-9966,https://monroecausewaycamp.com/
Paynetown Campground,campground,"State Hwy 446, Bloomington, IN 47401, USA",Bloomington,IN,47401,Monroe County,39.0816734,-86.4358790,OPERATIONAL,4.6,606,(866) 622-6746,https://indianastateparks.reserveamerica.com/camping/monroe-lake/r/campgroundDetails.do?contractCode=IN&parkId=570050
Scenic View Seasonal Campground,campground,"4592 State Hwy 446, Bloomington, IN 47401, USA",Bloomington,IN,47401,Monroe County,39.1075730,-86.4317017,OPERATIONAL,4.0,4,(812) 837-9496,https://scenicviewbloomington.com/rv-campground/
Shady Acres,rv_park,"708 S Cory Ln Lot 22, Bloomington, IN 47403, USA",Bloomington,IN,47403,Monroe County,39.1596166,-86.5621959,OPERATIONAL,3.8,13,,
South Rogers Mobile Home Community,rv_park,"2304 S Rogers St, Bloomington, IN 47403, USA",Bloomington,IN,47403,Monroe County,39.1423149,-86.5410156,OPERATIONAL,4.0,20,(812) 252-2202,https://sgcommunities.com/community/south-rogers/
Southcrest Estates,rv_park,"315 W Gordon Pike, Bloomington, IN 47403, USA",Bloomington,IN,47403,Monroe County,39.1207342,-86.5354574,OPERATIONAL,3.4,184,(812) 226-9981,https://rootsmg.com/community/southcrest_estates_bloomington_in
Bluffton / Fort Wayne South KOA Journey,rv_park,"1625 W Lancaster St, Bluffton, IN 46714, USA",Bluffton,IN,46714,Wells County,40.7461727,-85.1934997,OPERATIONAL,4.1,332,(260) 824-0127,https://koa.com/campgrounds/bluffton/?utm_source=google&utm_medium=organic&utm_campaign=gbp
Bluffton Woods Manufactured Home Community,rv_park,"404 Eastmoor Dr, Bluffton, IN 46714, USA",Bluffton,IN,46714,Wells County,40.7431221,-85.1586837,OPERATIONAL,3.6,99,(260) 824-3874,https://www.bayshorehomesales.com/communities/blufftonwoods?utm_campaign=WebsiteURL&utm_medium=organic&utm_source=GMB
Creekside (Prev Mendenhalls) RV/Mobile Park,rv_park,"3427 IN-124, Bluffton, IN 46714, USA",Bluffton,IN,46714,Wells County,40.7427635,-85.1574606,OPERATIONAL,4.0,24,(260) 824-5365,
Maple Grove Estates,rv_park,"1056 Crescent Dr, Bluffton, IN 46714, USA",Bluffton,IN,46714,Wells County,40.7303338,-85.1822667,OPERATIONAL,3.8,24,(260) 824-0078,
Ouabache State Park Campground,campground,"Bluffton, IN 46714, USA",Bluffton,IN,46714,Wells County,40.7191391,-85.0987545,OPERATIONAL,4.6,14,(260) 824-0926,https://www.in.gov/dnr/state-parks/parks-lakes/ouabache-state-park/?utm_source=Web&utm_medium=&utm_campaign=&utm_term=&utm_content=
Walnut Grove Campground,campground,"7440 W 400 N, Boggstown, IN 46110, USA",Boggstown,IN,46110,Shelby County,39.5870680,-85.9220770,OPERATIONAL,4.1,116,,http://walnutgrovecg.com/
Deam Lake Family Campground,campground,"Deam Lake Family Campground, Borden, IN 47106, USA",Borden,IN,47106,Clark County,38.4739225,-85.8638826,OPERATIONAL,4.4,195,,
Deam Lake Horse Campground,campground,"Deam Lake Horse Campground, Borden, IN 47106, USA",Borden,IN,47106,Clark County,38.4742181,-85.8605298,OPERATIONAL,4.4,35,,
Deam Lake State Recreation Area,campground,"1217 Deam Lake Rd, Borden, IN 47106, USA",Borden,IN,47106,Clark County,38.4667354,-85.8619667,OPERATIONAL,4.4,1912,(812) 246-5421,http://www.in.gov/dnr/forestry/4825.htm
Fallen Rock RV Parke & Campground,campground,"8816 S Fallen Rock Rd, Brazil, IN 47834, USA",Brazil,IN,47834,Parke County,39.6381480,-87.0588320,OPERATIONAL,4.6,66,(765) 672-4301,http://fallenrockrvparke.com/
"Happy Campers Campground, Inc.",campground,"7233 N County Rd 500 E, Brazil, IN 47834, USA",Brazil,IN,47834,Clay County,39.4923028,-87.0177522,OPERATIONAL,4.7,47,(812) 239-6263,https://www.hipcamp.com/en-US/land/indiana-happy-campers-campground-r57hy0kq?utm_source=google_maps&utm_campaign=suggest_website
Pla-Mor Campground,campground,"2162 US-6, Bremen, IN 46506, USA",Bremen,IN,46506,Marshall County,41.4553531,-86.1010936,OPERATIONAL,4.3,401,(574) 546-3665,https://pla-mor.net/index.html
Rupert's Resort Campground,campground,"3408 W Shore Dr, Bremen, IN 46506, USA",Bremen,IN,46506,Marshall County,41.4299543,-86.2374123,OPERATIONAL,3.9,129,(574) 276-7595,http://rupertsresortcampground.com/
Willow Rose RV Park,campground,"3203 E Allen St, Bridgeton, IN 47836, USA",Bridgeton,IN,47836,Parke County,39.6474093,-87.1748514,OPERATIONAL,4.4,14,(812) 814-9951,http://www.willowroseproperties.com/rvpark_index.htm
Eby's Pines RV Park & Campground,rv_park,"14588 IN-120, Bristol, IN 46507, USA",Bristol,IN,46507,Elkhart County,41.7232088,-85.7485187,OPERATIONAL,4.1,599,(574) 848-4583,http://www.ebyspines.com/
Timberbrook Manufactured Home Community,rv_park,"54686 Co Rd 19, Bristol, IN 46507, USA",Bristol,IN,46507,Elkhart County,41.7010301,-85.8699178,OPERATIONAL,3.0,275,(574) 848-5552,
Indian-Celina Lakes Recreation Area,campground,"20230 St Croix Pl, Bristow, IN 47515, USA",Bristow,IN,47515,Perry County,38.1967060,-86.6093319,OPERATIONAL,4.6,97,(877) 444-6777,https://www.fs.usda.gov/r09/hoosier/recreation/indian-celina-lakes-recreation-area
Indian-Celina Lakes South Slope Campground,campground,"Bristow, IN 47515, USA",Bristow,IN,47515,Perry County,38.1931610,-86.6078119,OPERATIONAL,4.6,70,(812) 843-4880,https://www.fs.usda.gov/recarea/hoosier/recreation/recarea/?recid=41486
Franklin County Parks & Campground,campground,"7178 Blue Creek Rd, Brookville, IN 47012, USA",Brookville,IN,47012,Franklin County,39.4040917,-85.0164738,OPERATIONAL,4.7,118,(765) 647-4422,http://franklincountypark.com/
Morgan's Outdoor Adventures,campground,"7040 Whitewater River Ln, Brookville, IN 47012, USA",Brookville,IN,47012,Franklin County,39.4126186,-85.0154315,OPERATIONAL,4.5,522,(765) 647-4904,https://www.morganscanoe.com/brookville/
Mounds State Recreation Area,campground,"14108 IN-101, Brookville, IN 47012, USA",Brookville,IN,47012,Franklin County,39.4948532,-84.9632292,OPERATIONAL,4.5,1634,(765) 647-2657,https://www.in.gov/dnr/state-parks/parks-lakes/brookville-lake/
Hunter Woods Manufactured Home Community,rv_park,"9900 Sackett Dr, Brownsburg, IN 46112, USA",Brownsburg,IN,46112,Hendricks County,39.8216323,-86.3484878,OPERATIONAL,3.3,49,(317) 852-4719,http://www.hunterwoodsmhc.com/
Hillview Mobile Home Court,rv_park,"420 S Asher St, Brownstown, IN 47220, USA",Brownstown,IN,47220,Jackson County,38.8739318,-86.0468673,OPERATIONAL,3.6,37,(812) 358-3425,
Bruceville Rod & Gun Club,campground,"6015 N Rod and Gun Club, Bruceville, IN 47516, USA",Bruceville,IN,47516,Knox County,38.7663440,-87.4006467,OPERATIONAL,4.8,32,(812) 324-9284,https://www.facebook.com/BrucevilleRodAndGunClub?mibextid=LQQJ4d
Tall Oaks Family Campground,campground,"8040 N Tall Oaks Ct, Buffalo, IN 47925, USA",Buffalo,IN,47925,White County,40.8985085,-86.7240628,OPERATIONAL,4.2,50,(574) 278-7181,https://www.talloaksin.com/
Wood's Campground,campground,"10532 N Carthage Pike, Carthage, IN 46115, USA",Carthage,IN,46115,Rush County,39.7640254,-85.5425146,OPERATIONAL,4.3,100,(765) 565-6718,
Cotton Wood Camp Grounds,campground,"6271 Campground, Cedar Grove, IN 47016, USA",Cedar Grove,IN,47016,Franklin County,39.3510747,-84.9212044,OPERATIONAL,4.6,61,(317) 665-3875,
Cedar Lake Ministries RV Park,rv_park,"8816 W 137th Ave, Cedar Lake, IN 46303, USA",Cedar Lake,IN,46303,Lake County,41.3710235,-87.4433500,OPERATIONAL,4.3,134,(219) 374-5941,https://www.cedarlakeministries.org/rv-park/
Cedar Lake Mobile Home Community,rv_park,"Cedar Lake, IN 46303, USA",Cedar Lake,IN,46303,Lake County,41.3756968,-87.4430444,OPERATIONAL,3.8,18,(219) 225-2105,https://cedarlakemhc.com/contact/
Camp Krietenstein,campground,"6445 E County Rd 575 N, Center Point, IN 47840, USA",Center Point,IN,47840,Putnam County,39.4745293,-86.9836333,OPERATIONAL,4.7,98,(812) 236-5016,http://campkrietenstein.org/
Pinecrest Pointe Mobile Home Park,rv_park,"833 Tanglewood Dr, Chandler, IN 47610, USA",Chandler,IN,47610,Warrick County,38.0457802,-87.3548695,OPERATIONAL,3.6,69,(812) 925-3355,https://yougotithomes.com/community/pinecrest-pointe/
Summit View Pointe Mobile Home Park,rv_park,"500 Navajo Trce, Chandler, IN 47610, USA",Chandler,IN,47610,Warrick County,38.0314598,-87.3664550,OPERATIONAL,3.4,16,(812) 870-0136,https://yougotithomes.com/summit-view-pointe/
Campground Charlestown State Park,campground,"Charlestown, IN 47111, USA",Charlestown,IN,47111,Clark County,38.4322337,-85.6349295,OPERATIONAL,4.5,107,(812) 256-5600,https://www.in.gov/dnr/state-parks/parks-lakes/charlestown-state-park/
Tunnel Mill Reservation,campground,"Charlestown, IN 47111, USA",Charlestown,IN,47111,Clark County,38.4839058,-85.6211231,OPERATIONAL,4.7,108,(877) 334-2674,https://lhcbsa.org/tunnel-mill-scout-reservation/
"Royal Oaks MHP, LLC",rv_park,"4801 County Rd 67, Chesterfield, IN 46017, USA",Chesterfield,IN,46017,Madison County,40.1104814,-85.5807199,OPERATIONAL,4.3,47,(765) 378-9120,
Dunewood Campground,campground,"1 Golf Wood Rd, Chesterton, IN 46304, USA",Chesterton,IN,46304,Porter County,41.6720808,-86.9849727,OPERATIONAL,4.5,557,(219) 395-1882,https://www.nps.gov/indu/planyourvisit/campgrounds.htm
Forest Oaks Mobile Home Park,rv_park,"1 Canterbury Cir, Chesterton, IN 46304, USA",Chesterton,IN,46304,Porter County,41.5654034,-87.0973451,OPERATIONAL,3.6,111,(219) 926-5867,https://cairncommunities.com/community/forest-oaks-mhc/
Indiana Dunes State Park Campground Showers and Bathrooms,campground,"Electric Campground, 1600 N 25 E, Chesterton, IN 46304, USA",Chesterton,IN,46304,Porter County,41.6576460,-87.0553794,OPERATIONAL,4.5,157,(219) 926-1952,https://indianastateparks.reserveamerica.com/
Sand Creek Campground,campground,"1000N N 350 E, Chesterton, IN 46304, USA",Chesterton,IN,46304,Porter County,41.5797301,-87.0022825,OPERATIONAL,3.8,336,(219) 926-7482,https://sandcreekcamp.com/
Lake Lincoln Electric Campground,campground,"Lake Lincoln Campground, Chrisney, IN 47611, USA",Chrisney,IN,47611,Spencer County,38.1058394,-86.9922522,OPERATIONAL,4.6,36,,
Blue Lake Campground,campground,"5453 N Blue Lake Rd, Churubusco, IN 46723, USA",Churubusco,IN,46723,Whitley County,41.2438576,-85.3509213,OPERATIONAL,3.6,205,(260) 693-2265,https://www.bluelakeindiana.com/
Blue Ridge Estates,rv_park,"6560 N 650 E, Churubusco, IN 46723, USA",Churubusco,IN,46723,Whitley County,41.2597086,-85.3658554,OPERATIONAL,3.5,28,(260) 508-3156,https://www.blueridgeestatesmhc.com/
Davis Lakeside Campground,rv_park,"7209 E Harrold Rd, Churubusco, IN 46723, USA",Churubusco,IN,46723,Whitley County,41.2374303,-85.3544489,OPERATIONAL,4.5,61,(260) 602-9414,
Edgewater Crossing Manufactured Home Community,rv_park,"1020 Seaport Dr, Cicero, IN 46034, USA",Cicero,IN,46034,Hamilton County,40.1055610,-86.0318501,OPERATIONAL,4.1,21,(317) 649-5917,https://www.americanmobilehomecommunities.com/edgewater-crossing
White River Campground,rv_park,"11299 E 234th St, Cicero, IN 46034, USA",Cicero,IN,46034,Hamilton County,40.1285505,-85.9680467,OPERATIONAL,4.6,557,(317) 770-4430,https://www.hamiltoncounty.in.gov/1942/White-River-Campground
Louisville North Campground,rv_park,"900 Marriott Dr, Clarksville, IN 47129, USA",Clarksville,IN,47129,Clark County,38.2790723,-85.7543825,OPERATIONAL,3.7,497,(812) 282-4474,http://louisvillenorthcampground.com/
Silver Creek RV Park,rv_park,"2411 Addmore Ln, Clarksville, IN 47129, USA",Clarksville,IN,47129,Clark County,38.3418635,-85.7615932,OPERATIONAL,4.1,204,(812) 283-4321,https://silvercreekrvparkin.com/
Silver Lakes Pointe Mobile Home Park,rv_park,"5935 US-31, Clarksville, IN 47129, USA",Clarksville,IN,47129,Clark County,38.3505151,-85.7503288,OPERATIONAL,3.6,195,(812) 282-6667,https://yougotithomes.com/community/silver-lakes-pointe/
Wellington Green,rv_park,"1350 Progress Way, Clarksville, IN 47129, USA",Clarksville,IN,47129,Clark County,38.3347283,-85.7620098,OPERATIONAL,3.9,246,(812) 288-6095,https://liveatwellingtongreen.com/
Wabash Park Campground,campground,"304 E County Rd 650 S, Clay City, IN 47841, USA",Clay City,IN,47841,Clay County,39.2906880,-87.1045368,OPERATIONAL,4.9,66,(800) 704-3945,https://wabashparkcamp.org/
Clermont Lions Club,rv_park,"3201 Tansel Rd, Clermont, IN 46234, USA",Clermont,IN,46234,Marion County,39.8111205,-86.3199324,OPERATIONAL,4.6,135,(463) 298-8789,https://clermontlionsclub.com/
Thousand Trails Horseshoe Lakes,rv_park,"12962 Horseshoe Ln, Clinton, IN 47842, USA",Clinton,IN,47842,Vermillion County,39.6953244,-87.5054699,OPERATIONAL,3.7,78,(765) 832-2487,https://thousandtrails.com/indiana/horseshoe-lakes-rv-campground/?utm_source=yext&utm_medium=directory&utm_campaign=Yext%20Directory%20Listing
Blackhawk 2 Campground,campground,"2120 W County Rd 1050 S, Cloverdale, IN 46120, USA",Cloverdale,IN,46120,Putnam County,39.5070090,-86.8900500,OPERATIONAL,4.9,15,(765) 795-4795,https://www.blackhawkcampground2.com/
Cloverdale / Indianapolis West KOA Journey,campground,"2789 E County Rd 800 S, Cloverdale, IN 46120, USA",Cloverdale,IN,46120,Putnam County,39.5457426,-86.7989488,OPERATIONAL,3.7,188,(765) 795-3294,https://koa.com/campgrounds/indianapolis-west/
Dogwood Springs Campground,campground,"8105 IN-243, Cloverdale, IN 46120, USA",Cloverdale,IN,46120,Putnam County,39.5441189,-86.8722962,OPERATIONAL,4.4,22,(765) 653-2461,http://dogwoodsprings.org/
Lieber State Recreation Area,,"1317 W Lieber Rd, Cloverdale, IN 46120, USA",Cloverdale,IN,46120,,39.4777000,-86.8799462,OPERATIONAL,4.6,1490,(765) 276-0194,https://on.in.gov/liebersra
Misty Morning Campground,campground,"12376 Campground Rd, Cloverdale, IN 46120, USA",Cloverdale,IN,46120,Owen County,39.4700880,-86.8627466,OPERATIONAL,4.0,92,(765) 795-5671,http://mmcampground.com/
Poplar Grove Campground,campground,"Cloverdale, IN 46120, USA",Cloverdale,IN,46120,Putnam County,39.4840785,-86.8805945,OPERATIONAL,4.8,11,,https://www.in.gov/dnr/state-parks/parks-lakes/cagles-mill-lake-lieber-and-cataract-falls-sra/
Sunny Acres Campground,campground,"Cloverdale, IN 46120, USA",Cloverdale,IN,46120,Putnam County,39.4839220,-86.8852823,OPERATIONAL,4.1,9,,
Broadview Lake Campground,campground,"4850 S Broadview Rd, Colfax, IN 46035, USA",Colfax,IN,46035,Clinton County,40.2162010,-86.6636580,OPERATIONAL,4.2,115,(765) 324-2622,https://www.broadviewcampground.com/
Countryside Mobile Home Park,rv_park,"1407 northlanecourt, Columbia City, IN 46725, USA",Columbia City,IN,46725,Whitley County,41.1701671,-85.5063017,OPERATIONAL,3.6,32,(260) 244-3003,
Miami Village Mobile Home Park,rv_park,"4614 E Old Trail Rd #48, Columbia City, IN 46725, USA",Columbia City,IN,46725,Whitley County,41.1631140,-85.4043660,OPERATIONAL,2.5,119,(260) 244-6447,https://m.mhvillage.com/Communities/MobileHomePark.php?key=12462
Candlelight Village,,"3671 Candlelight Dr, Columbus, IN 47203, USA",Columbus,IN,47203,Bartholomew County,39.2405631,-85.8918907,OPERATIONAL,4.1,246,(812) 372-1932,https://yescommunities.com/community/candlelight-village
CERA Sports Park & Campground,rv_park,"3989 S 525 E, Columbus, IN 47203, USA",Columbus,IN,47203,Bartholomew County,39.1624599,-85.8115518,OPERATIONAL,4.4,857,(812) 377-5849,http://www.ceraland.org/
Ceraland Campground,campground,"3989 S 525 E, Columbus, IN 47203, USA",Columbus,IN,47203,Bartholomew County,39.1624440,-85.8139510,OPERATIONAL,4.2,65,(812) 377-5849,https://www.ceraland.org/
Garden City Mobile Home Community,rv_park,"611 Garden St, Columbus, IN 47201, USA",Columbus,IN,47201,Bartholomew County,39.1854150,-85.9308989,OPERATIONAL,3.9,15,(812) 657-4624,
Heritage Heights,rv_park,"2895 Henry Lakes Blvd S, Columbus, IN 47201, USA",Columbus,IN,47201,Bartholomew County,39.2901475,-85.9571201,OPERATIONAL,3.5,486,(812) 526-4126,http://www.continentalcommunities.com/heritage-heights/
Homestead Mobile Home Park,rv_park,"2667 Milmar Ct, Columbus, IN 47203, USA",Columbus,IN,47203,Bartholomew County,39.2435302,-85.8942565,OPERATIONAL,3.9,112,(812) 372-5544,https://www.facebook.com/pages/Homestead-Mobile-Home-Park/120059064677467
Moose Park Campground,campground,"286 County Rd 300 E, Columbus, IN 47203, USA",Columbus,IN,47203,Bartholomew County,39.2009802,-85.8585506,OPERATIONAL,4.0,21,(812) 372-1257,https://rvcampgroundhq.com/campground/indiana/moose-park-campground/
Tannehill Pointe Mobile Home Park,rv_park,"3871 Mill Pl, Columbus, IN 47201, USA",Columbus,IN,47201,Bartholomew County,39.2976432,-85.9699234,OPERATIONAL,3.7,118,(812) 526-6064,https://yougotithomes.com/community/tannehill-pointe/
Woods-N-Waters Kampground,rv_park,"8855 S 300 W, Columbus, IN 47201, USA",Columbus,IN,47201,Bartholomew County,39.1202937,-85.9664304,OPERATIONAL,4.2,260,(812) 342-1619,https://www.woods-n-waters.com/
Bear Creek Camp,campground,"7417 County Rd 720 S, Connersville, IN 47331, USA",Connersville,IN,47331,Fayette County,39.5396948,-85.1446954,OPERATIONAL,4.8,46,(513) 317-3941,https://camping.churchofjesuschrist.org/
Elephant Hill Mobile Home Park,rv_park,"1000 W 21st St # 93, Connersville, IN 47331, USA",Connersville,IN,47331,Fayette County,39.6578788,-85.1492309,OPERATIONAL,3.2,155,(765) 377-7329,
Robinson's Whitewater River Campground,campground,"1614 IN-121, Connersville, IN 47331, USA",Connersville,IN,47331,Fayette County,39.6187025,-85.1470177,OPERATIONAL,4.3,290,(765) 825-4885,
Grand Trails RV Park,campground,"205 S Mulberry St, Corydon, IN 47112, USA",Corydon,IN,47112,Harrison County,38.2088806,-86.1245685,OPERATIONAL,3.8,88,(812) 738-9077,
O'Bannon Woods State Park,campground,"7234 Old Forest Rd, Corydon, IN 47112, USA",Corydon,IN,47112,Harrison County,38.1865152,-86.2963131,OPERATIONAL,4.6,1021,(812) 738-8232,http://on.in.gov/obannonwoodssp
Seven Oaks Pointe Mobile Home Park,rv_park,"1055 Old Forest Rd NW, Corydon, IN 47112, USA",Corydon,IN,47112,Harrison County,38.2187120,-86.1459430,OPERATIONAL,3.7,11,(812) 366-3110,https://yougotithomes.com/seven-oaks-pointe/
Covington City Park,campground,"1 City Park Dr, Covington, IN 47932, USA",Covington,IN,47932,Fountain County,40.1479889,-87.3980343,OPERATIONAL,4.7,381,(765) 793-3423,http://facebook.com/covingtoncitypark
Cottonwood Village Mobile Home,rv_park,"671 N 225 W, Crawfordsville, IN 47933, USA",Crawfordsville,IN,47933,Montgomery County,40.0499877,-86.9493331,OPERATIONAL,3.4,74,,
Crawfordsville KOA Journey,rv_park,"1600 Lafayette Rd, Crawfordsville, IN 47933, USA",Crawfordsville,IN,47933,Montgomery County,40.0618659,-86.9071083,OPERATIONAL,4.1,468,(800) 562-4191,https://koa.com/campgrounds/crawfordsville/?utm_source=google&utm_medium=organic&utm_campaign=gbp
Imperial Estates,rv_park,"101 Mercedes Dr, Crawfordsville, IN 47933, USA",Crawfordsville,IN,47933,Montgomery County,40.0228980,-86.8908980,OPERATIONAL,3.5,95,(765) 362-0519,http://www.parkbridgehomes.com/communities/imperial-estates
Sugar Creek Campground & Canoe Rentals,campground,"841 W 83 N, Crawfordsville, IN 47933, USA",Crawfordsville,IN,47933,Montgomery County,40.0512620,-86.9182590,OPERATIONAL,4.5,525,(765) 362-5528,http://www.sugarcreekcampground.com/
Sugar Creek Mobile Home Park,rv_park,"1100 Lafayette Rd, Crawfordsville, IN 47933, USA",Crawfordsville,IN,47933,Montgomery County,40.0547561,-86.9031372,OPERATIONAL,3.7,15,,
Island Grove Manufactured Home Community,rv_park,"9151 N 1200 W, De Motte, IN 46310, USA",De Motte,IN,46310,Jasper County,41.1488660,-87.2739345,OPERATIONAL,3.9,90,(219) 345-4426,https://www.bayshorehomesales.com/communities/islandGrove?utm_campaign=WebsiteURL&utm_medium=organic&utm_source=GMB
Lake Holiday,campground,"11780 IN-10, De Motte, IN 46310, USA",De Motte,IN,46310,Jasper County,41.1504418,-87.2700666,OPERATIONAL,3.9,309,(219) 345-3132,http://www.lakeholidaycamp.com
Love's RV Stop,rv_park,"11207 West Dr #10, De Motte, IN 46310, USA",De Motte,IN,46310,Jasper County,41.1440680,-87.2575409,OPERATIONAL,4.4,88,(219) 987-2202,https://www.camplife.com/campground/Love%2527s+RV+Stop-Demotte+IN+394?utm_source=google&utm_medium=organic&utm_campaign=maps
Neighbors of Demotte Trails,rv_park,"306 Mallard Dr SE, De Motte, IN 46310, USA",De Motte,IN,46310,Jasper County,41.1897560,-87.1822640,OPERATIONAL,5.0,3,(219) 228-8222,
Ponderosa Sun Club,rv_park,"10600 N 400 E, De Motte, IN 46310, USA",De Motte,IN,46310,Newton County,41.1541050,-87.3170690,OPERATIONAL,4.7,157,(219) 345-2268,http://www.ponderosasunclub.com/
Wheelock Lake Campground,campground,"3622 E Co Rd 200 S, Dillsboro, IN 47018, USA",Dillsboro,IN,47018,Ripley County,39.0439643,-85.1918563,OPERATIONAL,3.8,70,(812) 487-3855,https://www.campwheelock.com/
Greene Sullivan State Forest,campground,"2551 IN-159, Dugger, IN 47848, USA",Dugger,IN,47848,Sullivan County,39.0448610,-87.2591572,OPERATIONAL,4.3,37,(812) 648-2810,http://www.in.gov/dnr/forestry/4821.htm
Section 600 Camping,campground,"040423200008000015, Earl Park, IN 47942, USA",Earl Park,IN,47942,Benton County,40.6900439,-87.4158132,OPERATIONAL,5.0,4,,
Eaton Mobile Home Community,rv_park,"Lot 43, 600 S Fort Wayne Ave, Eaton, IN 47338, USA",Eaton,IN,47338,Delaware County,40.3366059,-85.3460502,OPERATIONAL,3.5,32,(765) 399-5004,
Patoka Lake Fisherman's Campground,campground,"Eckerty, IN 47116, USA",Eckerty,IN,47116,Dubois County,38.4046863,-86.6832068,OPERATIONAL,4.7,30,(812) 338-5589,https://www.in.gov/dnr/state-parks/parks-lakes/patoka-lake/
Patoka Lake Modern Campground,campground,"Unnamed Road, Eckerty, IN 47116, USA",Eckerty,IN,47116,Orange County,38.4055129,-86.6535181,OPERATIONAL,4.8,189,(812) 685-2464,https://www.in.gov/dnr/state-parks/parks-lakes/patoka-lake/
Whitaker Campground Camp Atterbury,campground,"3008 Old Hospital Rd, Edinburgh, IN 46124, USA",Edinburgh,IN,46124,Johnson County,39.3548805,-86.0264106,OPERATIONAL,4.5,148,(812) 526-1128,https://www.atterburymuscatatuck.in.ng.mil/Home/MWR.aspx
Miles Landing Campground,rv_park,"10311 New Harmony Rd, Elberfeld, IN 47613, USA",Elberfeld,IN,47613,Warrick County,38.0974518,-87.4361632,OPERATIONAL,4.6,221,(812) 457-6447,http://mileslanding.online/
Eco Lake Park,,"9300 State Hwy 7, Elizabethtown, IN 47232, USA",Elizabethtown,IN,47232,Jennings County,39.1225696,-85.7568955,OPERATIONAL,4.3,67,(812) 346-2953,https://jcparksrec.com/amenities.php
Gassaway Lake Campground,campground,"9355 N Private Rd 875 W, Elizabethtown, IN 47232, USA",Elizabethtown,IN,47232,Jennings County,39.1195081,-85.7769595,OPERATIONAL,4.8,37,(812) 579-6305,
Elkhart Campground,campground,"25608 Co Rd 4, Elkhart, IN 46514, USA",Elkhart,IN,46514,Elkhart County,41.7380596,-85.9588991,OPERATIONAL,4.4,724,(574) 264-2914,https://elkhartcampground.com/
Elkhart Mobile Home Park,rv_park,"29200 Co Rd 20, Elkhart, IN 46517, USA",Elkhart,IN,46517,Elkhart County,41.6585327,-86.0263794,OPERATIONAL,3.9,57,(574) 295-7625,http://elkhart-park.poi.place/
Parke Place Estates,rv_park,"2231 Osolo Rd, Elkhart, IN 46514, USA",Elkhart,IN,46514,Elkhart County,41.7147743,-85.9501987,OPERATIONAL,3.8,263,(574) 266-0825,https://www.umh.com/community/parke-place/?utm_source=GMBlisting&utm_medium=organic
Southwood Manufactured Home Community,rv_park,"1500 IN-37, Elwood, IN 46036, USA",Elwood,IN,46036,Madison County,40.2635681,-85.8203348,OPERATIONAL,3.5,63,(765) 552-9520,
Sycamore Springs Park,rv_park,"717 W Tunnel Hill Rd, English, IN 47118, USA",English,IN,47118,Crawford County,38.3143990,-86.4802870,OPERATIONAL,4.8,361,(812) 338-3846,https://sycamorespringspark.com/
Etna Green Mobile Home Park,rv_park,"208 S Main St, Etna Green, IN 46524, USA",Etna Green,IN,46524,Kosciusko County,41.2754898,-86.0526046,OPERATIONAL,3.4,47,(574) 635-6080,https://knightscommunities.com/etna-green-indiana-etna-green-mobile-home-park/
Burdette Park,,"5301 Nurrenbern Rd, Evansville, IN 47712, USA",Evansville,IN,47712,Vanderburgh County,37.9426920,-87.6402103,OPERATIONAL,4.5,1866,(812) 435-5602,http://www.burdettepark.org/
Carolina Pointe Mobile Home Park,rv_park,"2850 Carolina Ave, Evansville, IN 47710, USA",Evansville,IN,47710,Vanderburgh County,38.0058248,-87.5852604,OPERATIONAL,3.4,100,(812) 422-3076,https://yougotithomes.com/carolina-pointe/
Grandin pointe,rv_park,"1905 Evanston Dr, Evansville, IN 47720, USA",Evansville,IN,47720,Vanderburgh County,38.0321473,-87.5911992,OPERATIONAL,5.0,1,,
Grandin Pointe Mobile Home Park,rv_park,"5901 N St Joseph Ave, Evansville, IN 47720, USA",Evansville,IN,47720,Vanderburgh County,38.0333690,-87.5984726,OPERATIONAL,3.1,270,(812) 423-2487,https://yougotithomes.com/community/grandin-pointe/
Madison Pointe Mobile Home Park,rv_park,"4400 Cox Ave, Evansville, IN 47712, USA",Evansville,IN,47712,Vanderburgh County,37.9751895,-87.6292714,OPERATIONAL,4.1,8,(812) 424-1424,https://yougotithomes.com/community/madison-pointe/
Mill Creek Pointe Mobile Home Park,rv_park,"5320 Big 10 Blvd, Evansville, IN 47720, USA",Evansville,IN,47720,Vanderburgh County,38.0283735,-87.5908566,OPERATIONAL,3.9,92,(812) 421-1024,https://yougotithomes.com/community/mill-creek-pointe/
Pleasant Ridge,,"4901 Pleasant Ridge Dr, Evansville, IN 47711, USA",Evansville,IN,47711,Vanderburgh County,38.0221674,-87.4960534,OPERATIONAL,3.0,22,(812) 909-1121,https://yescommunities.com/community/Pleasant-Ridge
Rocky Falls Campground & RV Park,campground,"11901 Deer Run Dr, Evansville, IN 47712, USA",Evansville,IN,47712,Posey County,37.9512886,-87.7015453,OPERATIONAL,3.7,135,(812) 746-7907,http://rockyfallsrvpark.com/
Town & Country MHC,rv_park,"7301 Everglades Dr, Evansville, IN 47720, USA",Evansville,IN,47720,Vanderburgh County,38.0425033,-87.6761245,OPERATIONAL,3.8,45,(812) 213-4857,https://www.mhccapitalllc.com/community/town-country/
Trailer Park Oakhill,rv_park,"528 Underhill Ct, Evansville, IN 47711, USA",Evansville,IN,47711,Vanderburgh County,37.9826894,-87.5349579,OPERATIONAL,2.6,22,,
Twin Lakes Manufactured Home Community,rv_park,"216 Deer Run, Evansville, IN 47712, USA",Evansville,IN,47712,Posey County,37.9246647,-87.7040622,OPERATIONAL,4.0,224,(812) 985-5775,https://www.bayshorehomesales.com/communities/twinLakesIN?utm_campaign=WebsiteURL&utm_medium=organic&utm_source=GMB
Vanderburgh 4-H Campground,campground,"201 E Boonville-New Harmony Rd, Evansville, IN 47725, USA",Evansville,IN,47725,Vanderburgh County,38.0923813,-87.5627628,OPERATIONAL,4.7,3,(812) 867-6217,https://vanderburgh4hcenter.com/?page_id=25
Walker Pointe Mobile Home Park,rv_park,"2500 Nebraska Ave, Evansville, IN 47720, USA",Evansville,IN,47720,Vanderburgh County,38.0130474,-87.6022278,OPERATIONAL,4.4,5,(812) 424-1424,https://yougotithomes.com/community/walker-pointe/
Waterford Pointe Mobile Home Park,rv_park,"2448 Saw Grass Dr, Evansville, IN 47715, USA",Evansville,IN,47715,Vanderburgh County,37.9439918,-87.4724637,OPERATIONAL,4.2,154,(812) 477-3655,https://yougotithomes.com/community/waterford-pointe/
Oak Lake RV Resort,rv_park,"5310 E 900 N, Fair Oaks, IN 47943, USA",Fair Oaks,IN,47943,Newton County,41.1300397,-87.2893970,OPERATIONAL,4.5,381,(219) 306-8223,https://www.oaklakervresort.com/
Creekside Mobile home park,rv_park,"6480 N London Rd, Fairland, IN 46126, USA",Fairland,IN,46126,Shelby County,39.6162935,-85.9214139,OPERATIONAL,3.6,9,(317) 418-6967,
Countyline Mobile Home Park,rv_park,"311 Lockerbie Pl, Fairmount, IN 46928, USA",Fairmount,IN,46928,Grant County,40.3807045,-85.6539935,OPERATIONAL,2.7,50,(765) 536-9647,http://www.countylinemhp.com/
Fair Oaks Estates Mobile Home & RV Park,rv_park,"OFFICE, 1400 N Elm St Lot 37, Fairmount, IN 46928, USA",Fairmount,IN,46928,Grant County,40.4283997,-85.6442106,OPERATIONAL,2.4,17,(765) 948-3788,https://fairoaksmobilerv.com/
Hidden Lake Resort,rv_park,"11460 Strawtown Pike, Fairmount, IN 46928, USA",Fairmount,IN,46928,Grant County,40.3876360,-85.7770180,OPERATIONAL,4.5,142,(765) 948-4862,http://www.hiddenlakesresort.net/
Cedar Manor,rv_park,"633 W 9th St, Ferdinand, IN 47532, USA",Ferdinand,IN,47532,Dubois County,38.2258460,-86.8687940,OPERATIONAL,3.7,7,(812) 848-2800,http://dhpmanagement.com/
Quarry Lake Campground,campground,"736 S Co Rd 825 E, Fillmore, IN 46128, USA",Fillmore,IN,46128,Putnam County,39.6491775,-86.7027088,OPERATIONAL,4.5,107,(765) 386-7332,
Bachelor Runn Campground LLC,campground,"625 IN-75, Flora, IN 46929, USA",Flora,IN,46929,Carroll County,40.5564321,-86.5291978,OPERATIONAL,4.1,52,(765) 413-9000,http://bachelorrunncampgroundllc.godaddysites.com/
Damvue River Camp,campground,"12106 IN-156, Florence, IN 47020, USA",Florence,IN,47020,Switzerland County,38.7799180,-84.9871400,OPERATIONAL,4.5,24,(937) 903-2793,
Follow the River RV Resort,rv_park,"12273 Markland Town Rd, Florence, IN 47020, USA",Florence,IN,47020,Switzerland County,38.7830276,-84.9815110,OPERATIONAL,4.6,257,(812) 427-3330,http://www.followtheriverrvresort.com/?utm_source=google&utm_medium=wix_google_business_profile&utm_campaign=15834249130798482107
Apple Valley Manufactured Home Community,rv_park,"10326 Old Leo Rd, Fort Wayne, IN 46825, USA",Fort Wayne,IN,46825,Allen County,41.1768790,-85.0732315,OPERATIONAL,3.7,47,(260) 483-4372,http://www.applevalleymhc.com/
Carrington Pointe,rv_park,"7211 Carrington Blvd, Fort Wayne, IN 46818, USA",Fort Wayne,IN,46818,Allen County,41.1447025,-85.1998417,OPERATIONAL,3.5,301,(260) 497-0031,https://www.suncommunities.com/indiana/carrington-pointe?utm_source=google&utm_medium=organic&utm_campaign=gbp_listing
Cedarwood Trails Manufactured Home Community,rv_park,"6008 Moeller Rd, Fort Wayne, IN 46806, USA",Fort Wayne,IN,46806,Allen County,41.0517968,-85.0616141,OPERATIONAL,3.5,201,(260) 749-9724,https://www.bayshorehomesales.com/communities/cedarwoodtrailsin?utm_campaign=WebsiteURL&utm_medium=organic&utm_source=GMB
Country Court Estates,rv_park,"10744 US-27 Lot 101, Fort Wayne, IN 46816, USA",Fort Wayne,IN,46816,Allen County,40.9856222,-85.0906014,OPERATIONAL,3.3,95,(260) 639-3223,
Countryside Village Fort Wayne,,"2320 W Washington Center Rd, Fort Wayne, IN 46818, USA",Fort Wayne,IN,46818,Allen County,41.1349963,-85.1719415,OPERATIONAL,3.1,215,(260) 489-3437,https://www.yescommunities.com/community/countryside-village-fort-wayne
Dupont Estates,rv_park,"10002 Wheatfield Ln, Fort Wayne, IN 46825, USA",Fort Wayne,IN,46825,Allen County,41.1774816,-85.0870978,OPERATIONAL,3.2,74,(260) 484-1971,https://www.dupontestates.com/
Edgewood Estates,rv_park,"5330 Goshen Rd, Fort Wayne, IN 46818, USA",Fort Wayne,IN,46818,Allen County,41.1432489,-85.2101926,OPERATIONAL,3.3,184,(260) 489-4451,http://www.edgewoodrental.com/
Fort Wayne,rv_park,"2220 Dunkelberg Rd Lot 914, Fort Wayne, IN 46819, USA",Fort Wayne,IN,46819,Allen County,41.0025891,-85.1611475,OPERATIONAL,3.1,33,(260) 209-0337,https://rootsmg.com/community/fort_wayne_fort_wayne_in
Glenbrook Mobile Home Park,rv_park,"3939 N Clinton St, Fort Wayne, IN 46805, USA",Fort Wayne,IN,46805,Allen County,41.1133950,-85.1333850,OPERATIONAL,3.9,69,(260) 484-3033,https://www.glenbrookmhc.com/
Glenridge Manor Mobile Home Park,rv_park,"7227 Moeller Rd, Fort Wayne, IN 46806, USA",Fort Wayne,IN,46806,Allen County,41.0587085,-85.0461192,OPERATIONAL,3.9,113,(260) 493-4243,https://www.glenridgemanor.com/
Johnny Appleseed Park,,"1500 N Harry Baals Dr, Fort Wayne, IN 46805, USA",Fort Wayne,IN,46805,Allen County,41.1119989,-85.1192379,OPERATIONAL,4.5,1192,(260) 427-6720,http://www.fortwayneparks.org/
McArthur Estates,rv_park,"3637 McArthur Dr, Fort Wayne, IN 46809, USA",Fort Wayne,IN,46809,Allen County,41.0078636,-85.1814657,OPERATIONAL,3.7,27,(260) 747-6558,
Oak Creek,rv_park,"9721 Springvale Dr, Fort Wayne, IN 46825, USA",Fort Wayne,IN,46825,Allen County,41.1735923,-85.0887380,OPERATIONAL,3.2,105,(260) 483-3248,
Ridgebrook Estates,rv_park,"2737 W Washington Center Rd, Fort Wayne, IN 46818, USA",Fort Wayne,IN,46818,Allen County,41.1295461,-85.1785389,OPERATIONAL,3.4,479,(260) 233-6980,https://mysunrisecommunity.com/community/ridgebrook-hills/
River Camp Fort Wayne,campground,"8607 Winchester Rd, Fort Wayne, IN 46819, USA",Fort Wayne,IN,46819,Allen County,41.0077420,-85.1377600,OPERATIONAL,4.7,7,,http://rivercampfortwayne.com/
Southern Hills Mobile Home Park,rv_park,"5415 Southern Ct Lot 30, Fort Wayne, IN 46806, USA",Fort Wayne,IN,46806,Allen County,41.0349612,-85.1252556,OPERATIONAL,4.2,25,(260) 484-3033,
Southtown Mobile Home Community,rv_park,"7555 Decatur Rd, Fort Wayne, IN 46816, USA",Fort Wayne,IN,46816,Allen County,41.0160173,-85.1095834,OPERATIONAL,3.4,61,(260) 333-9996,
St. Marys Mobile Home Park,rv_park,"944 Elmer Ave, Fort Wayne, IN 46808, USA",Fort Wayne,IN,46808,Allen County,41.1013496,-85.1561090,OPERATIONAL,3.5,13,,
Stonecrest II Manufactured Home Community,rv_park,"4831 Bade Dr, Fort Wayne, IN 46816, USA",Fort Wayne,IN,46816,Allen County,41.0209573,-85.0756863,OPERATIONAL,3.4,101,(260) 447-3611,https://www.bayshorehomesales.com/communities/stonecrestIIin?utm_campaign=WebsiteURL&utm_medium=organic&utm_source=GMB
Village of North Oak,rv_park,"6000 N Oak Blvd, Fort Wayne, IN 46818, USA",Fort Wayne,IN,46818,Allen County,41.1351321,-85.1855669,OPERATIONAL,3.9,110,(260) 489-9402,http://village-oak.edan.io/
Waynedale Mobile Homes Inc,rv_park,"7515 Bluffton Rd, Fort Wayne, IN 46809, USA",Fort Wayne,IN,46809,Allen County,41.0123557,-85.1688172,OPERATIONAL,3.2,53,(260) 747-2727,
Wells Street Mobile Home Park,rv_park,"3126 N Wells St Lot 1, Fort Wayne, IN 46808, USA",Fort Wayne,IN,46808,Allen County,41.1046170,-85.1461540,OPERATIONAL,2.6,128,(260) 482-1014,
Indiana District UPCI Campground,campground,"1900 E Broadway St, Fortville, IN 46040, USA",Fortville,IN,46040,Madison County,39.9500487,-85.8143628,OPERATIONAL,4.9,168,(317) 485-5532,https://www.indianacamp.org/
Acorn Oaks RV Park,campground,"16614 IN-114, Francesville, IN 47946, USA",Francesville,IN,47946,Pulaski County,40.9355710,-86.9239310,OPERATIONAL,4.7,172,(219) 335-2850,http://www.acornoaksrvpark.com/
Camp Cullom,campground,"6815 W Co Rd 200 N, Frankfort, IN 46041, USA",Frankfort,IN,46041,Clinton County,40.3137649,-86.6334471,OPERATIONAL,4.7,200,(765) 296-2753,https://www.campcullom.org/
The Stewart Manor Mobile Home Park,rv_park,"1558 Rossville Ave, Frankfort, IN 46041, USA",Frankfort,IN,46041,Clinton County,40.2944730,-86.5238950,OPERATIONAL,3.6,54,(765) 659-3028,
Countryview Estates Mobile Home Community,rv_park,"1199 Hospital Rd #52, Franklin, IN 46131, USA",Franklin,IN,46131,Johnson County,39.4761797,-86.0805272,OPERATIONAL,3.0,252,(317) 736-8625,
Pennington Mobile Home Park,rv_park,"3090 N Morton St Lot #67, Franklin, IN 46131, USA",Franklin,IN,46131,Johnson County,39.5184435,-86.0792468,OPERATIONAL,4.2,109,(317) 736-7677,https://www.mobilehome.net/mobile-home-parks/51619-pennington-mobile-home-park-in-franklin-in
Camp Kikthawenund,campground,"7651 W 500 N, Frankton, IN 46044, USA",Frankton,IN,46044,Madison County,40.1781733,-85.8166825,OPERATIONAL,4.3,29,(765) 552-7400,https://campreservation.com/160/Camps/199
Maple Hills Mobile Home Park,rv_park,"210 S Woodworth Ave # 128, Frankton, IN 46044, USA",Frankton,IN,46044,Madison County,40.2241600,-85.7636450,OPERATIONAL,3.1,40,(765) 754-7766,http://maple-home-park-frankton.jany.io/
"Old Mill Canoe Rental - Blue River Canoe, Kayak, Camp",campground,"5 US-150, Fredericksburg, IN 47120, USA",Fredericksburg,IN,47120,Washington County,38.4338791,-86.1921723,OPERATIONAL,4.9,282,(812) 472-3140,http://www.oldmillcanoerental.com/
Jellystone Park™ Barton Lake,rv_park,"140 Ln 201 Barton Lake, Fremont, IN 46737, USA",Fremont,IN,46737,Steuben County,41.7514059,-85.0501750,OPERATIONAL,4.4,2264,(260) 833-1114,https://jellystonebartonlake.com/
Pokagon State Park Campground Gate,campground,"Unnamed Road, Fremont, IN 46737, USA",Fremont,IN,46737,Steuben County,41.7109645,-85.0314650,OPERATIONAL,4.6,136,(260) 833-2012,https://indianastateparks.reserveamerica.com/camping/pokagon-state-park/r/campgroundDetails.do?contractCode=IN&parkId=570038
Painter Creek Camp Resort,rv_park,"7380 W County Rd 700 S, French Lick, IN 47432, USA",French Lick,IN,47432,Orange County,38.4542504,-86.5966496,OPERATIONAL,4.4,64,(812) 936-7545,http://paintercreekcamp.com/
Patoka Pines RV Campground and Boat Storage,campground,"7570 S Old State Rd 145, French Lick, IN 47432, USA",French Lick,IN,47432,Orange County,38.4457967,-86.6039067,OPERATIONAL,4.8,35,(812) 203-2725,http://patokapines.com/
Sleeping Bear Retreat,campground,"2773 S County Rd 1000 W, French Lick, IN 47432, USA",French Lick,IN,47432,Orange County,38.5124619,-86.6450822,OPERATIONAL,4.3,46,(812) 865-6898,http://www.sleepingbearretreat.com/
Woodland Hills Campground,campground,"8128 W County Rd 750 S, French Lick, IN 47432, USA",French Lick,IN,47432,Orange County,38.4469962,-86.6093813,OPERATIONAL,4.1,13,(812) 797-4290,
Hudsons Old Mill Campground and Flea Market,campground,"7249 1st St, Friendship, IN 47021, USA",Friendship,IN,47021,Ripley County,38.9693914,-85.1486251,OPERATIONAL,4.6,110,(812) 667-5322,https://hudsonsoldmill.com/
Deer Creek Village,rv_park,"401 S Deer Creek St, Galveston, IN 46932, USA",Galveston,IN,46932,Cass County,40.5740651,-86.1834759,OPERATIONAL,4.5,80,(765) 233-5034,http://www.deercreekvillagemhc.com/
Indian Springs Campground & Splash Springs Aqua Park,rv_park,"981 Co Rd 64, Garrett, IN 46738, USA",Garrett,IN,46738,DeKalb County,41.2960438,-85.1475560,OPERATIONAL,3.4,314,(260) 357-5572,http://www.indianspringsoutdoors.com/
North Pointe Crossing,rv_park,"1 E Edgewater Dr N, Garrett, IN 46738, USA",Garrett,IN,46738,DeKalb County,41.3644690,-85.1335090,OPERATIONAL,3.2,85,(260) 465-1000,
Jordan Mobile Home Park,rv_park,"3650 W Ridge Rd, Gary, IN 46408, USA",Gary,IN,46408,Lake County,41.5505550,-87.3820498,OPERATIONAL,3.8,64,(219) 885-9654,https://knightscommunities.com/gary-indiana-jordan-mobile-home-park/
Miller's Junction Manufactured Home Community,rv_park,"6632 Melton Rd, Gary, IN 46403, USA",Gary,IN,46403,Lake County,41.5963612,-87.2583085,OPERATIONAL,3.9,55,(219) 318-1449,https://millersjunctionmhc.tenantcloud.com/
Marbrook Campground,campground,"6690 E 600 S, Gas City, IN 46933, USA",Gas City,IN,46933,Grant County,40.4575000,-85.5500000,OPERATIONAL,4.0,209,(765) 674-4383,http://www.marbrookcampground.com/
Amishville USA,campground,"844 E 900 S, Geneva, IN 46740, USA",Geneva,IN,46740,Adams County,40.6129413,-84.9192991,OPERATIONAL,4.3,246,(260) 589-3536,
Brookside Manor,rv_park,"61108 Old County Rd 17, Goshen, IN 46526, USA",Goshen,IN,46526,Elkhart County,41.6035166,-85.8839742,OPERATIONAL,3.2,228,(574) 875-6315,https://www.suncommunities.com/indiana/brookside-manor?utm_source=google&utm_medium=organic&utm_campaign=gbp_listing
Creekside Estates,rv_park,"909 N Indiana Ave, Goshen, IN 46528, USA",Goshen,IN,46528,Elkhart County,41.5976785,-85.8496374,OPERATIONAL,4.1,23,(574) 534-1787,
Elkhart County 4-H Fairgrounds,rv_park,"17746-D County Rd 34, Goshen, IN 46528, USA",Goshen,IN,46528,Elkhart County,41.5796014,-85.8065766,OPERATIONAL,4.5,2624,(574) 533-3247,http://www.4hfair.org/
Roxbury Park,rv_park,"403 Post Rd, Goshen, IN 46526, USA",Goshen,IN,46526,Elkhart County,41.5906431,-85.8814060,OPERATIONAL,3.4,194,(574) 533-9916,https://www.suncommunities.com/indiana/roxbury-park?utm_source=google&utm_medium=organic&utm_campaign=gbp_listing
The Willows,rv_park,"400 The Willows, Goshen, IN 46526, USA",Goshen,IN,46526,Elkhart County,41.6199348,-85.9038727,OPERATIONAL,4.2,73,(574) 875-9117,https://www.suncommunities.com/indiana/the-willows?utm_source=google&utm_medium=organic&utm_campaign=gbp_listing
Elkhart RV Resort by Rjourney,rv_park,"50707 Princess Way, Granger, IN 46530, USA",Granger,IN,46530,St. Joseph County,41.7575514,-86.1168401,OPERATIONAL,4.3,688,(574) 800-2069,https://rjourney.com/park/in/elkhart/?utm_source=gmb&utm_medium=organic&utm_campaign=elkhart
Shady Circle Campground,,"7658 880 W, Greencastle, IN 46135, USA",Greencastle,IN,46135,Parke County,39.7758227,-87.0125763,OPERATIONAL,4.6,32,,https://youtu.be/spqR4kCqC0g
Heartland Resort,campground,"1613 W 300 N, Greenfield, IN 46140, USA",Greenfield,IN,46140,Hancock County,39.8257618,-85.8323918,OPERATIONAL,4.1,513,(317) 326-3181,http://www.heartlandresort.com/
Indianapolis KOA Holiday,rv_park,"5896 W 200 N, Greenfield, IN 46140, USA",Greenfield,IN,46140,Hancock County,39.8126990,-85.9130131,OPERATIONAL,4.3,1115,(317) 894-1397,https://koa.com/campgrounds/indianapolis/?utm_source=google&utm_medium=organic&utm_campaign=gbp
Maple's Mobile Home Park,rv_park,"547 Pratt St, Greenfield, IN 46140, USA",Greenfield,IN,46140,Hancock County,39.7915840,-85.7612750,OPERATIONAL,3.4,79,(317) 608-9130,
Mohawk Camp Ground,campground,"756 W 375 N, Greenfield, IN 46140, USA",Greenfield,IN,46140,Hancock County,39.8438738,-85.8176915,OPERATIONAL,4.3,86,(317) 441-4540,
S&H Campground,rv_park,"2573 W 100 N, Greenfield, IN 46140, USA",Greenfield,IN,46140,Hancock County,39.7978380,-85.8507657,OPERATIONAL,3.6,824,(317) 326-3208,https://www.sandhcampground.com/?utm_source=google&utm_medium=organic&utm_campaign=gmb
Greentown Estates Manufactured Home Community,rv_park,"500 W Payton St, Greentown, IN 46936, USA",Greentown,IN,46936,Howard County,40.4839156,-85.9719839,OPERATIONAL,3.4,62,(765) 628-3512,https://www.bayshorehomesales.com/communities/greentownestatesin?utm_campaign=WebsiteURL&utm_medium=organic&utm_source=GMB
Glendale,rv_park,"4175 W County Line Rd, Greenwood, IN 46142, USA",Greenwood,IN,46142,Johnson County,39.6338630,-86.1816250,OPERATIONAL,3.2,51,(317) 888-1841,
Greenwood Estates Manufactured Home Community,rv_park,"1598 US 31 S, Greenwood, IN 46143, USA",Greenwood,IN,46143,Johnson County,39.5942508,-86.1039422,OPERATIONAL,2.7,241,(317) 881-4113,https://www.bayshorehomesales.com/communities/GreenwoodEstates?utm_source=GMB&utm_medium=organic&utm_campaign=WebsiteURL
"Oak Meadows MHC, LLC",rv_park,"2638 Old State Rd 37 N, Greenwood, IN 46143, USA",Greenwood,IN,46143,Johnson County,39.5764584,-86.2422524,OPERATIONAL,3.7,92,(765) 346-0477,https://horizonlandmgmt.com/
Pebble Creek,rv_park,"225 Pebble Creek Dr, Greenwood, IN 46143, USA",Greenwood,IN,46143,Johnson County,39.5909674,-86.1106747,OPERATIONAL,3.4,218,(317) 885-3910,https://www.suncommunities.com/indiana/pebble-creek?utm_source=google&utm_medium=organic&utm_campaign=gbp_listing
Winterbrook,rv_park,"4377 County Line Rd, Greenwood, IN 46142, USA",Greenwood,IN,46142,Johnson County,39.6342131,-86.1830425,OPERATIONAL,3.0,221,(317) 888-1841,https://www.winterbrookmhc.com/
Bremerton Mobile Home Park & Sales,,"1336 E Elm St, Griffith, IN 46319, USA",Griffith,IN,46319,Lake County,41.5304551,-87.4100316,OPERATIONAL,4.2,6,(219) 455-1453,
Tall Oaks RV Campground,campground,"9415 E 500 N, Grovertown, IN 46531, USA",Grovertown,IN,46531,Starke County,41.3741259,-86.5162010,OPERATIONAL,4.2,115,(574) 867-5267,http://www.e-zkamp.com/
Last Resort Campground,rv_park,"4707 W 1300 S, Hanna, IN 46340, USA",Hanna,IN,46340,LaPorte County,41.4217900,-86.7866650,OPERATIONAL,4.3,228,(219) 797-2267,https://camplastresort.com/
German Ridge Campground,campground,"XC27+M3, Hardingrove, IN 47525, USA",Hardingrove,IN,47525,Perry County,37.9516875,-86.5873125,OPERATIONAL,4.8,5,,
Autumn Ridge Mobile Home Community,rv_park,"606 W Park Ave, Hartford City, IN 47348, USA",Hartford City,IN,47348,Blackford County,40.4644126,-85.3726272,OPERATIONAL,3.4,26,,
Sherwood & Nottingham Mobile Home Park,rv_park,"1714 S Walnut St, Hartford City, IN 47348, USA",Hartford City,IN,47348,Blackford County,40.4361381,-85.3716354,OPERATIONAL,3.7,36,(765) 348-5013,
Wildwood Outdoor Escape,campground,"520 W 300 N, Hartford City, IN 47348, USA",Hartford City,IN,47348,Blackford County,40.4935609,-85.3804570,OPERATIONAL,4.3,154,(765) 348-2100,http://www.wildwoodoutdoorescape.com/
Weather Rock Campground,campground,"12848 S Weather Rock Dr, Haubstadt, IN 47639, USA",Haubstadt,IN,47639,Gibson County,38.1684978,-87.5186696,OPERATIONAL,3.5,98,(812) 867-3401,
Apple Valley,,"1850 E 181st Ave, Hebron, IN 46341, USA",Hebron,IN,46341,Lake County,41.2899370,-87.3081679,OPERATIONAL,3.3,26,(219) 696-6468,https://yescommunities.com/community/Apple-Valley
Gas-Lite Mobile Home Park,rv_park,"13 gaslight, Hebron, IN 46341, USA",Hebron,IN,46341,Porter County,41.3186482,-87.2003091,OPERATIONAL,4.2,41,(219) 996-5571,
Blackwell Horse Camp,campground,"Cope Hollow Trail, Heltonville, IN 47436, USA",Heltonville,IN,47436,Monroe County,39.0183642,-86.3881853,OPERATIONAL,4.7,173,,https://www.fs.usda.gov/recarea/hoosier/recarea/?recid=41516
Hardin Ridge Recreation Area,campground,"6464 Hardin Ridge Rd, Heltonville, IN 47436, USA",Heltonville,IN,47436,Monroe County,39.0178790,-86.4497250,OPERATIONAL,4.7,727,(812) 837-9453,https://www.fs.usda.gov/recarea/hoosier/recreation/recarea/?recid=41468
Charlarose Lake & Campground,campground,"3204 E 300 S, Hillsboro, IN 47949, USA",Hillsboro,IN,47949,Fountain County,40.0849406,-87.1077792,OPERATIONAL,4.8,169,(765) 234-7286,http://charlarose.com/
"Sugar Mill Lake & Campgrounds, Inc.",campground,"3101 S Sugar Mill Lake Rd, Hillsboro, IN 47949, USA",Hillsboro,IN,47949,Fountain County,40.0148085,-87.1194204,OPERATIONAL,4.1,94,(765) 769-1133,http://www.smcampground.com/
Ravinia Pines,rv_park,"534 E 37th Ave, Hobart, IN 46342, USA",Hobart,IN,46342,Lake County,41.5554383,-87.2654443,OPERATIONAL,3.0,217,(219) 962-1183,https://www.raviniapines.com/
Riverwood Estates,rv_park,"615 W 37th Ave, Hobart, IN 46342, USA",Hobart,IN,46342,Lake County,41.5501181,-87.2674973,OPERATIONAL,3.4,5,(812) 269-2950,http://www.riverwoodestatesmhp.com/
Twin Mills Campground,rv_park,"1675 IN-120, Howe, IN 46746, USA",Howe,IN,46746,LaGrange County,41.7194294,-85.4583337,OPERATIONAL,4.0,621,(260) 562-3212,https://thousandtrails.com/indiana/twin-mills-camping-resort/?utm_source=yext&utm_medium=directory&utm_campaign=Yext%20Directory%20Listing
Hudson Mobile Home Community,rv_park,"202 E Railroad St, Hudson, IN 46747, USA",Hudson,IN,46747,Steuben County,41.5294808,-85.0773106,OPERATIONAL,3.1,36,(260) 200-3783,
Dubois County Park,campground,"4157 IN-162, Huntingburg, IN 47542, USA",Huntingburg,IN,47542,Dubois County,38.3198200,-86.8764210,OPERATIONAL,4.5,78,(812) 482-2434,http://www.duboiscountyin.org/
Camp Timber Lake,rv_park,"1740 E 675 N, Huntington, IN 46750, USA",Huntington,IN,46750,Huntington County,40.9297030,-85.4182111,OPERATIONAL,4.4,388,(260) 672-3251,http://www.discovertimberlake.com/
Dry Dock Campground & Storage,campground,"5762 S 700 W, Huntington, IN 46750, USA",Huntington,IN,46750,Huntington County,40.7447690,-85.5824660,OPERATIONAL,4.6,36,(260) 468-2026,http://drydockcampground.com/
J. E. Roush Fish and Wildlife Area,campground,"517 N Warren Rd, Huntington, IN 46750, USA",Huntington,IN,46750,,40.8370776,-85.4643336,OPERATIONAL,4.4,602,(260) 468-2165,http://www.in.gov/dnr/fishwild/6358.htm
Avon Lakes Estates,,"2135 Redland Rd, Indianapolis, IN 46234, USA",Indianapolis,IN,46234,Hendricks County,39.7947769,-86.3423440,OPERATIONAL,3.7,396,(317) 271-8250,https://www.yescommunities.com/community/Avon-Lakes-Estates
Briarwood & Briarcreek Mobile,rv_park,"9625 E 52nd St., Indianapolis, IN 46235, USA",Indianapolis,IN,46235,Marion County,39.8445283,-85.9993047,OPERATIONAL,4.0,78,(317) 899-2365,https://cohronhomes.com/community/briarwood/
Brookville Mobile Home Park,rv_park,"6200 S Brookville Rd, Indianapolis, IN 46219, USA",Indianapolis,IN,46219,Marion County,39.7579640,-86.0613222,OPERATIONAL,3.4,186,(317) 353-6291,https://www.mhvillage.com/parks/11832
Bullfrog Mobile Home Park,rv_park,"1326 S Lynhurst Dr, Indianapolis, IN 46241, USA",Indianapolis,IN,46241,Marion County,39.7477414,-86.2521923,OPERATIONAL,2.5,213,(317) 294-2128,
Camp Belzer,campground,"6102 Boy Scout Rd, Indianapolis, IN 46226, USA",Indianapolis,IN,46226,Marion County,39.8652610,-86.0390090,OPERATIONAL,4.7,330,(317) 546-6031,http://www.campbelzer.org/
Clermont Mobile Home Park,rv_park,"10900-10998 Horse Shoe Dr, Indianapolis, IN 46234, USA",Indianapolis,IN,46234,Hendricks County,39.8151360,-86.3278585,OPERATIONAL,3.2,28,(317) 503-3385,https://clermontmhp.com/
Deerfield Acres,rv_park,"4004 Highland Cir, Indianapolis, IN 46221, USA",Indianapolis,IN,46221,Marion County,39.7050980,-86.2341030,OPERATIONAL,3.2,141,(317) 505-1375,
Garden city trailer park,rv_park,"4911 Rockville Rd Lot 2, Indianapolis, IN 46224, USA",Indianapolis,IN,46224,Marion County,39.7635182,-86.2440109,OPERATIONAL,2.9,13,(317) 435-0678,
Gonzalez Mobile Home Park,rv_park,"5353 W Vermont St #12, Indianapolis, IN 46224, USA",Indianapolis,IN,46224,Marion County,39.7717708,-86.2529929,OPERATIONAL,3.8,41,,
Greenbriar Mobile Park,rv_park,"9901 Pendleton Pike, Indianapolis, IN 46236, USA",Indianapolis,IN,46236,Marion County,39.8497213,-85.9934804,OPERATIONAL,4.0,93,(317) 898-8395,http://www.cohronhomes.com/greenbriar-communities.html
Harrison Grove Estates,rv_park,"4923 Rockville Rd, Indianapolis, IN 46224, USA",Indianapolis,IN,46224,Marion County,39.7633280,-86.2445860,OPERATIONAL,2.8,147,(317) 308-4010,
Indy Lakes,campground,"4001 W Southport Rd, Indianapolis, IN 46217, USA",Indianapolis,IN,46217,Marion County,39.6627815,-86.2281622,OPERATIONAL,3.9,405,(317) 888-6006,http://www.indylakes.com/
Lake Haven Retreat,rv_park,"1739 W Edgewood Ave, Indianapolis, IN 46217, USA",Indianapolis,IN,46217,Marion County,39.6779704,-86.1925683,OPERATIONAL,4.3,466,(317) 783-5267,http://www.lakehavenretreat.com/
Lake Of The Pines Mobile Home Park,rv_park,"1931 Lake of the Pines Dr, Indianapolis, IN 46234, USA",Indianapolis,IN,46234,Marion County,39.7915964,-86.3141231,OPERATIONAL,3.9,84,(317) 271-7463,https://www.lakeofthepinesindy.com/
Lantern Estates,rv_park,"2909 S Lynhurst Dr, Indianapolis, IN 46241, USA",Indianapolis,IN,46241,Marion County,39.7217306,-86.2498420,OPERATIONAL,3.4,155,(317) 247-6692,http://lantern-estates.com/
Longacre Mobile Home Park,rv_park,"4701 Madison Ave, Indianapolis, IN 46227, USA",Indianapolis,IN,46227,Marion County,39.6972401,-86.1316751,OPERATIONAL,3.2,326,(317) 788-4466,http://www.longacremhc.com/
Madison Mobile Home Community,rv_park,"4403 Madison Ave, Indianapolis, IN 46227, USA",Indianapolis,IN,46227,Marion County,39.6992029,-86.1373767,OPERATIONAL,3.0,85,(317) 983-4403,
Maplewood Manufactured Home Community,rv_park,"12451 Pendleton Pike, Indianapolis, IN 46236, USA",Indianapolis,IN,46236,Marion County,39.8826586,-85.9455149,OPERATIONAL,3.2,143,(317) 823-6858,https://www.bayshorehomesales.com/communities/maplewoodin?utm_campaign=WebsiteURL&utm_medium=organic&utm_source=GMB
Marion County Fairgrounds,campground,"7300 E Troy Ave, Indianapolis, IN 46239, USA",Indianapolis,IN,46239,Marion County,39.7288298,-86.0374841,OPERATIONAL,4.1,1425,(317) 353-2444,http://www.marioncountyfair.org/
Mariwood,,"9231 Mariwood Pkwy, Indianapolis, IN 46234, USA",Indianapolis,IN,46234,Marion County,39.7742916,-86.3264456,OPERATIONAL,3.6,276,(317) 271-5835,https://www.yescommunities.com/community/Mariwood
Parkwood MH,rv_park,"9300 Pendleton Pike, Indianapolis, IN 46236, USA",Indianapolis,IN,46236,Marion County,39.8479908,-86.0052235,OPERATIONAL,4.0,228,(317) 897-9365,https://cohronhomes.com/community/parkwood/
Pondarosa Community,rv_park,"3559 Cossell Rd, Indianapolis, IN 46222, USA",Indianapolis,IN,46222,Marion County,39.7677945,-86.2182264,OPERATIONAL,3.1,141,,
Quail Creek Mobile Home Park,rv_park,"10136 Hickory Leaf Rd, Indianapolis, IN 46235, USA",Indianapolis,IN,46235,Marion County,39.8509712,-85.9869842,OPERATIONAL,3.9,218,(317) 823-4285,https://cohronhomes.com/community/quail-creek/
Raceview Family Campground,campground,"3380 N County Road 1000 East, Indianapolis, IN 46234, USA",Indianapolis,IN,46234,Hendricks County,39.8114139,-86.3460572,OPERATIONAL,4.5,293,(317) 852-5737,http://www.raceviewfamilycampground.com/
Silverstone,rv_park,"7441 Chinook Cir, Indianapolis, IN 46219, USA",Indianapolis,IN,46219,Marion County,39.7679256,-86.0363958,OPERATIONAL,3.6,215,(317) 356-1666,https://www.silverstonemhc.com/
Skyway Manufactured Home Community,rv_park,"2952 Skyline Dr, Indianapolis, IN 46241, USA",Indianapolis,IN,46241,Marion County,39.7209808,-86.2426728,OPERATIONAL,3.3,250,(317) 243-8175,https://www.bayshorehomesales.com/communities/skywayIin?utm_campaign=WebsiteURL&utm_medium=organic&utm_source=GMB
Southtown Mobile Home Community,rv_park,"5217 Madison Ave, Indianapolis, IN 46227, USA",Indianapolis,IN,46227,Marion County,39.6901994,-86.1337340,OPERATIONAL,4.3,15,(317) 480-0138,http://openmgmt.com/southtown
Spring Valley Mobile Home Park,rv_park,"8820 Pendleton Pike, Indianapolis, IN 46226, USA",Indianapolis,IN,46226,Marion County,39.8438698,-86.0120731,OPERATIONAL,3.5,63,(317) 898-3232,
Valleybrook,,"4620 S High School Rd, Indianapolis, IN 46241, USA",Indianapolis,IN,46241,Marion County,39.6965133,-86.2696256,OPERATIONAL,3.3,467,(317) 856-4838,https://www.yescommunities.com/community/Valleybrook
West Glen Village Manufactured Home Community,rv_park,"1207 Rushmore Blvd E, Indianapolis, IN 46234, USA",Indianapolis,IN,46234,Marion County,39.7816660,-86.3215059,OPERATIONAL,3.2,477,(317) 271-4824,https://www.bayshorehomesales.com/communities/westglen?utm_campaign=WebsiteURL&utm_medium=organic&utm_source=GMB
Wilcox Mobile Home Park,rv_park,"1826 Georgetown Rd, Indianapolis, IN 46224, USA",Indianapolis,IN,46224,Marion County,39.7905845,-86.2416534,OPERATIONAL,3.6,45,(317) 248-1311,http://wilcoxmgt.com/
Windsong MHC,rv_park,"3050 S Lynhurst Dr, Indianapolis, IN 46241, USA",Indianapolis,IN,46241,Marion County,39.7191754,-86.2524273,OPERATIONAL,3.6,355,(317) 243-9442,https://www.windsongmhc.com/
Campground,campground,"Park Rd, Jasonville, IN 47438, USA",Jasonville,IN,47438,Greene County,39.1625980,-87.2321380,OPERATIONAL,4.4,10,(812) 665-2158,https://www.in.gov/dnr/parklake/2969.htm
Maple Grove MHC,rv_park,"3828 N Portersville Rd, Jasper, IN 47546, USA",Jasper,IN,47546,Dubois County,38.4351855,-86.9501558,OPERATIONAL,4.9,7,(812) 481-8705,https://nelsoncommunities.com/community/maple-grove/
Mobile Home Convenient Park,rv_park,"1534 Plank Rd unit 12, Jeffersonville, IN 47130, USA",Jeffersonville,IN,47130,Clark County,38.2947555,-85.7282123,OPERATIONAL,3.6,71,(812) 282-6320,
Sherwood Heights,rv_park,"2009 Hamburg Pike Apt. 126, Jeffersonville, IN 47130, USA",Jeffersonville,IN,47130,Clark County,38.2950355,-85.7485371,OPERATIONAL,3.0,161,(812) 701-0719,https://rootsmg.com/community/sherwood_heights_jeffersonville_in
Sunset Park A Manufacture Home Community,rv_park,"2323 Charlestown Pike, Jeffersonville, IN 47130, USA",Jeffersonville,IN,47130,Clark County,38.3249239,-85.7313462,OPERATIONAL,4.1,82,(812) 282-0523,http://sunsetmobilehomepark.net/
Virginia Village,rv_park,"1200 S 4th Ave, Jonesboro, IN 46938, USA",Jonesboro,IN,46938,Grant County,40.4738269,-85.6390610,OPERATIONAL,4.7,7,(765) 251-0751,
Maple Grove Colonial Sales,rv_park,"1713 Maple Grove Blvd # 60, Kendallville, IN 46755, USA",Kendallville,IN,46755,Noble County,41.4217891,-85.2592348,OPERATIONAL,3.1,85,(317) 762-0173,http://maple-sales.edan.io/
Jellystone Park™ Indianapolis East,rv_park,"5964 IN-109, Knightstown, IN 46148, USA",Knightstown,IN,46148,Henry County,39.8472529,-85.5552146,OPERATIONAL,4.3,448,(765) 737-6585,https://www.jellystoneindy.com/
Bass Lake Beach & Campground,campground,"5837 IN-10, Knox, IN 46534, USA",Knox,IN,46534,Starke County,41.2199697,-86.5787407,OPERATIONAL,4.5,114,(574) 772-9181,https://starkecountyparks.com/our-parks/bass-lake-beach-campground/
Hickory Hills Campground,campground,"5820 E Manor Dr, Knox, IN 46534, USA",Knox,IN,46534,Starke County,41.2448420,-86.5852130,OPERATIONAL,4.3,82,(574) 772-4817,
Lost Pines,rv_park,"4257 S 675 E, Knox, IN 46534, USA",Knox,IN,46534,Starke County,41.2410586,-86.5688224,OPERATIONAL,4.4,139,(574) 772-2351,http://www.lost-pines.com/
Holiday Estates Manufactured Home Community,rv_park,"2900 N Apperson Way, Kokomo, IN 46901, USA",Kokomo,IN,46901,Howard County,40.5161998,-86.1267084,OPERATIONAL,3.9,108,(765) 626-3097,https://www.boavidacommunities.com/communities/holiday-estates-manufactured-home-community/
Maple Lawn Village Manufactured Home Community,rv_park,"12948 US-31 Lot 51, Kokomo, IN 46901, USA",Kokomo,IN,46901,Miami County,40.5783823,-86.1294312,OPERATIONAL,3.1,137,(765) 457-5728,https://www.bayshorehomesales.com/communities/maplelawnvillagein?utm_campaign=WebsiteURL&utm_medium=organic&utm_source=GMB
Modern Estates Manufactured Home Community,rv_park,"2700 N Washington St #55, Kokomo, IN 46901, USA",Kokomo,IN,46901,Howard County,40.5139654,-86.1332261,OPERATIONAL,3.4,212,(765) 452-6583,https://www.bayshorehomesales.com/communities/modernestatesin?utm_campaign=WebsiteURL&utm_medium=organic&utm_source=GMB
Nick home Kokomo Estates Mobile Home Park,rv_park,"4508 County Rd E 200 S, Kokomo, IN 46902, USA",Kokomo,IN,46902,Howard County,40.4498825,-86.0420608,OPERATIONAL,3.2,26,(765) 453-0825,
Oak Brook Estates lot 270,rv_park,"4508 County Rd E 200 S, Kokomo, IN 46902, USA",Kokomo,IN,46902,Howard County,40.4496505,-86.0413405,OPERATIONAL,4.1,137,(765) 450-3713,
Springhill Campground,campground,"623 County Rd South 750 W, Kokomo, IN 46901, USA",Kokomo,IN,46901,Howard County,40.4667426,-86.2722850,OPERATIONAL,4.1,274,(765) 883-7433,http://www.springhillcampground.com/
Deerfield Estates MHC,rv_park,"7701 US-35, La Porte, IN 46350, USA",La Porte,IN,46350,LaPorte County,41.4950934,-86.6839617,OPERATIONAL,3.5,98,(219) 393-3000,https://nelsoncommunities.com/communities/deerfield-estates/
La Porte Village,rv_park,"1083 IN-2, La Porte, IN 46350, USA",La Porte,IN,46350,LaPorte County,41.6349842,-86.6783027,OPERATIONAL,3.4,122,(219) 325-0240,https://laportevillage.com/
Lakeside Manor Manufactured Home Community,rv_park,"196 McClung Rd, La Porte, IN 46350, USA",La Porte,IN,46350,LaPorte County,41.6328600,-86.7381620,OPERATIONAL,4.3,45,(219) 362-3956,https://www.lakesidemanormhc.com/
New Durham Estates Land Lease Community and Manufactured Home Dealer,rv_park,"9852 W State Rd 2, La Porte, IN 46350, USA",La Porte,IN,46350,LaPorte County,41.5623550,-86.8944341,OPERATIONAL,4.1,44,(219) 785-2576,http://www.newdurhamestates.com/
AOK Campground,campground,"225 E 300 S, Lafayette, IN 47909, USA",Lafayette,IN,47909,Tippecanoe County,40.3728910,-86.9007394,OPERATIONAL,3.7,215,(765) 474-5030,http://www.aokcampgrounds.com/
Big Fish-N-Campground,campground,"5831 S 900 E, Lafayette, IN 47905, USA",Lafayette,IN,47905,Tippecanoe County,40.3325461,-86.7303013,OPERATIONAL,4.1,249,(765) 296-2346,http://bigfishcamp.com/
Cor-Dale Court,rv_park,"777 Cor-Dale Rd, Lafayette, IN 47904, USA",Lafayette,IN,47904,Tippecanoe County,40.4455874,-86.8814636,OPERATIONAL,3.1,36,,
Lori Lee Estates,rv_park,"53 Lori Lee Dr, Lafayette, IN 47905, USA",Lafayette,IN,47905,Tippecanoe County,40.4095752,-86.8561929,OPERATIONAL,4.6,21,(765) 449-4159,http://lori-leeestates.com/
Modernaire Mobile Home Park,rv_park,"4410 IN-25, Lafayette, IN 47905, USA",Lafayette,IN,47905,Tippecanoe County,40.4802271,-86.8301754,OPERATIONAL,3.1,15,,
Royal Oak Estates,rv_park,"1115 W 275 S, Lafayette, IN 47909, USA",Lafayette,IN,47909,Tippecanoe County,40.3776949,-86.9271032,OPERATIONAL,4.1,19,(765) 474-3556,
Wolfe's Leisure Time Campground,campground,"7414 Old State Rd 25 N, Lafayette, IN 47905, USA",Lafayette,IN,47905,Tippecanoe County,40.5252629,-86.7630147,OPERATIONAL,4.4,258,(765) 589-8089,http://www.wltc.org/
CoCoJo's RV Campground,campground,"4115 S 700 E, Lagro, IN 46941, USA",Lagro,IN,46941,Wabash County,40.7659151,-85.6574973,OPERATIONAL,4.3,355,(260) 571-3644,http://cocojosrvresort.com/
Salamonie River State Forest Family Campground,campground,"5124 County Rd 100 S, Lagro, IN 46941, USA",Lagro,IN,46941,Wabash County,40.8123809,-85.6961159,OPERATIONAL,4.7,21,(260) 782-0430,https://stateparks.com/salamonie_river_state_forest_in_indiana.html
Mansard Du Lac Manufactured Home Community,rv_park,"7300 E 10th Ave, Lake Station, IN 46405, USA",Lake Station,IN,46405,Lake County,41.5925541,-87.2519505,OPERATIONAL,3.6,155,(219) 247-3029,https://www.mansarddulacmhc.com/
"Pioneer Family Campground, Inc.",campground,"1273 E 900 N, Lake Village, IN 46349, USA",Lake Village,IN,46349,Newton County,41.1299611,-87.3669935,OPERATIONAL,4.2,90,(219) 345-4472,https://www.pioneerfamilycampground.net/
Sun Aura,campground,"3449 IN-10, Lake Village, IN 46349, USA",Lake Village,IN,46349,Newton County,41.1426752,-87.3258002,OPERATIONAL,4.6,354,(219) 345-2000,http://www.sunauraresort.net/
Ten Oaks Mobile Home Park,rv_park,"2103 IN-10, Lake Village, IN 46349, USA",Lake Village,IN,46349,Newton County,41.1427309,-87.3508064,OPERATIONAL,2.9,68,,
Maple Ridge Campground,rv_park,"65777 Maple Rd, Lakeville, IN 46536, USA",Lakeville,IN,46536,St. Joseph County,41.5399050,-86.2925012,OPERATIONAL,4.5,321,(574) 784-8532,http://www.mapleridgecampground.com/
"Lincoln State Park, Gobbler's Run Campground",campground,"Lamar, IN 47550, USA",Lamar,IN,47550,Spencer County,38.1091730,-86.9909636,OPERATIONAL,4.5,93,(812) 937-4710,http://www.in.gov/dnr/parklake/2979.htm
Forest Ridge Family Campground,rv_park,"5000 Elder Rd, Larwill, IN 46764, USA",Larwill,IN,46764,Whitley County,41.2368205,-85.6392900,OPERATIONAL,4.5,71,(260) 557-6215,https://www.forestridgecamping.com/content/welcome-forest-ridge-family-campground
Horseshoe Bend RV Campground,rv_park,"850 Court St, Leavenworth, IN 47137, USA",Leavenworth,IN,47137,Crawford County,38.1983411,-86.3495111,OPERATIONAL,4.2,104,(812) 267-3031,http://www.horseshoebendrv.com/
Irv’s Landing,rv_park,"460 Jackson St, Leavenworth, IN 47137, USA",Leavenworth,IN,47137,Crawford County,38.1957855,-86.3460356,OPERATIONAL,5.0,4,,
Love's RV Hookup,rv_park,"6582 IN-66, Leavenworth, IN 47137, USA",Leavenworth,IN,47137,Crawford County,38.2451774,-86.3581701,OPERATIONAL,3.8,29,(812) 739-2020,https://www.camplife.com/campground/Love%2527s+RV+Hookup-Leavenworth+IN+839?utm_source=google&utm_medium=organic&utm_campaign=maps
O'Bannon State Park Campground,campground,"5PW5+9R, Leavenworth, IN 47112, USA",Leavenworth,IN,47112,Harrison County,38.1959148,-86.2904510,OPERATIONAL,4.5,4,,https://www.reserveamerica.com/explore/obannon-woods-state-park/IN/570051/campsites
Hoosier Estates,,"830 Campbell St, Lebanon, IN 46052, USA",Lebanon,IN,46052,Boone County,40.0551498,-86.4854195,OPERATIONAL,3.8,132,(765) 482-7108,https://yescommunities.com/community/hoosier-estates
Brookville Lake Resort,rv_park,"2288 Old State Rd 101, Liberty, IN 47353, USA",Liberty,IN,47353,Union County,39.5280520,-84.9721170,OPERATIONAL,4.7,148,(765) 458-5353,https://www.brookvillelakeresortsassociation.com/home/
Heritage Hills Campground,campground,"Liberty Tree Dr, Liberty, IN 47353, USA",Liberty,IN,47353,Union County,39.5466603,-84.9453411,OPERATIONAL,4.5,16,(513) 987-8971,
Quakertown Campground,campground,"3506 W Quakertown Rd, Liberty, IN 47353, USA",Liberty,IN,47353,Union County,39.5899900,-84.9960333,OPERATIONAL,4.5,169,(765) 647-2657,http://www.in.gov/activecalendar_dnr/EventList.aspx?fromdate=5/28/2016&todate=5/28/2016&display=Day&type=public&eventidn=9137&view=EventDetails&information_id=19284
Whitewater Memorial State Park Campground,campground,"Unnamed Road, Liberty, IN 47353, USA",Liberty,IN,47353,Union County,39.6160706,-84.9610937,OPERATIONAL,4.6,102,(765) 458-7670,https://indianastateparks.reserveamerica.com/camping/whitewater-memorial-state-park/r/campgroundDetails.do?contractCode=IN&parkId=570033
Eagles Nest an FR Community,rv_park,"877 US-6 #39, Ligonier, IN 46767, USA",Ligonier,IN,46767,Noble County,41.4533316,-85.5730631,OPERATIONAL,3.7,113,(260) 215-4767,https://frcommunity.com/eagles-nest/?utm_source=google&utm_medium=Organic&utm_campaign=gmb
Cozy Corner Campsite,rv_park,"1296 SE 3rd St, Linton, IN 47441, USA",Linton,IN,47441,Greene County,39.0218550,-87.1644310,OPERATIONAL,5.0,9,(812) 322-8012,http://cozycornercampsite.org/
Cozy Corner Campsite (taking reservations),rv_park,"1251 SE 3rd St, Linton, IN 47441, USA",Linton,IN,47441,Greene County,39.0225276,-87.1636261,OPERATIONAL,5.0,2,(812) 322-8012,http://cozycornercampsite.org/
Eagles Nest Camping,campground,"11948 County Rd 200 S, Linton, IN 47441, USA",Linton,IN,47441,Greene County,38.9948722,-87.1662789,OPERATIONAL,4.8,47,(812) 699-8160,https://www.facebook.com/EaglesNestCamping/
Hillbilly Acres Campground LLC,campground,"14746 W 50 N, Linton, IN 47441, USA",Linton,IN,47441,Greene County,39.0356579,-87.2174390,OPERATIONAL,4.5,81,(812) 798-6458,https://www.hillbillyacrescampgroundllc.com/
Crescent Hills Mobile Home Park,rv_park,"1801 W Market St #51, Logansport, IN 46947, USA",Logansport,IN,46947,Cass County,40.7561312,-86.3953579,OPERATIONAL,3.0,27,,
France Park,campground,"4505 US-24, Logansport, IN 46947, USA",Logansport,IN,46947,Cass County,40.7597926,-86.4573124,OPERATIONAL,4.5,1367,(574) 753-2928,https://www.in.gov/counties/cass/france-park/
Home,rv_park,"lot38, 2808 US-35, Logansport, IN 46947, USA",Logansport,IN,46947,Cass County,40.7278678,-86.2905549,OPERATIONAL,3.2,41,(574) 753-3400,
Stoney Pike Mobile Home Park,rv_park,"901 E Main St, Logansport, IN 46947, USA",Logansport,IN,46947,Cass County,40.7417297,-86.3573684,OPERATIONAL,4.4,20,(574) 753-6570,
Tall Sycamore Campground,campground,"355 S County Rd 600 E, Logansport, IN 46947, USA",Logansport,IN,46947,Cass County,40.7602259,-86.2591850,OPERATIONAL,4.3,157,(574) 753-4898,http://www.tallsycamorecampground.com/
Wagler Motorsports Park,campground,"4425 W 300 S, Lyons, IN 47443, USA",Lyons,IN,47443,Greene County,38.9729890,-87.0248510,OPERATIONAL,4.8,158,(812) 636-0391,http://www.waglermotorsportspark.com/
Crooked Creek Mobile Home Community,rv_park,"801 Cragmont St, Madison, IN 47250, USA",Madison,IN,47250,Jefferson County,38.7422460,-85.3937297,OPERATIONAL,5.0,3,(812) 717-3536,https://www.turnkeycommunities.com/
Madison Estates,rv_park,"3710 Woodside Dr, Madison, IN 47250, USA",Madison,IN,47250,Jefferson County,38.7506089,-85.4556590,OPERATIONAL,3.5,70,(812) 701-4451,https://rootsmg.com/community/madison_madison_in
Madison Village Manufactured Home Community,rv_park,"11 E Village Dr, Madison, IN 47250, USA",Madison,IN,47250,Jefferson County,38.7914220,-85.3869210,OPERATIONAL,3.1,160,(812) 273-3717,https://www.bayshorehomesales.com/communities/madisonvillagein?utm_campaign=WebsiteURL&utm_medium=organic&utm_source=GMB
Riverview Campground,rv_park,"1003 E Vaughn Dr, Madison, IN 47250, USA",Madison,IN,47250,Jefferson County,38.7323473,-85.3658419,OPERATIONAL,4.5,96,(812) 292-2003,https://www.madison-in.gov/department/division.php?structureid=145
Marengo Cave Campgrounds,campground,"400 E State Rd 64, Marengo, IN 47140, USA",Marengo,IN,47140,Crawford County,38.3753053,-86.3415809,OPERATIONAL,4.8,617,(812) 365-2705,http://www.marengocave.com/
Green Acres Campground,campground,"7232 E N 00 S, Marion, IN 46952, USA",Marion,IN,46952,Grant County,40.5517832,-85.5371023,OPERATIONAL,4.1,84,(765) 499-1637,https://m.facebook.com/GreenAcresIsThePlaceToBe
King's Trailer Court,rv_park,"1304 S Baldwin Ave, Marion, IN 46953, USA",Marion,IN,46953,Grant County,40.5489501,-85.6760101,OPERATIONAL,4.3,23,(765) 664-9551,
lu Ida trailer park,rv_park,"2743 W 17th St, Marion, IN 46953, USA",Marion,IN,46953,Grant County,40.5441856,-85.7061176,OPERATIONAL,3.5,31,,
Rose Valley Mobile Home Park,rv_park,"2150 W 13th St, Marion, IN 46953, USA",Marion,IN,46953,Grant County,40.5482907,-85.6912921,OPERATIONAL,4.4,53,(765) 664-9551,
Sports Lake Campground,campground,"7230 County Rd 400 S, Marion, IN 46953, USA",Marion,IN,46953,Grant County,40.4933810,-85.5340520,OPERATIONAL,4.1,91,(765) 998-2558,http://www.sportslakecampground.com/
Stonecrest Manor Manufactured Home Community,rv_park,"2801 S Stone Rd #500, Marion, IN 46953, USA",Marion,IN,46953,Grant County,40.5363655,-85.6247744,OPERATIONAL,3.4,163,(765) 662-7008,https://www.bayshorehomesales.com/communities/stonecrestmanorin?utm_campaign=WebsiteURL&utm_medium=organic&utm_source=GMB
Summit Village,rv_park,"246 N 500 E lot 239, Marion, IN 46952, USA",Marion,IN,46952,Grant County,40.5578042,-85.5760236,OPERATIONAL,3.7,20,(765) 668-1113,https://www.umh.com/community/summit-village---in/?utm_source=GMBlisting&utm_medium=organic
White Oaks Mobile Home Comm,rv_park,"7145 S Meridian St, Marion, IN 46953, USA",Marion,IN,46953,Grant County,40.4832009,-85.6524527,OPERATIONAL,3.4,88,(765) 674-6166,
Woodlands Mobile Home Park,rv_park,"1515 S Miller Ave, Marion, IN 46953, USA",Marion,IN,46953,Grant County,40.5455033,-85.6928324,OPERATIONAL,4.0,68,(765) 664-9551,
Turkey Run State Park Campground,campground,"1576 IN-47, Marshall, IN 47859, USA",Marshall,IN,47859,Parke County,39.8799917,-87.2158146,OPERATIONAL,4.7,507,(765) 597-2635,http://on.in.gov/turkeyrunsp
Up the Creek Boat-ique,campground,"1165 IN-47, Marshall, IN 47859, USA",Marshall,IN,47859,Parke County,39.8774248,-87.2207611,CLOSED_TEMPORARILY,4.4,631,(765) 597-2355,http://www.sugarvalleycanoes.com/
Lake Melissa Campground,campground,"9985 W Lake Melissa Dr, Martinsville, IN 46151, USA",Martinsville,IN,46151,Morgan County,39.4850967,-86.6117307,OPERATIONAL,4.5,71,,
Martinsville Estates,rv_park,"46 Laveianan Ct, Martinsville, IN 46151, USA",Martinsville,IN,46151,Morgan County,39.4073907,-86.4175740,OPERATIONAL,5.0,1,(317) 818-9458,
Mason Ridge Camping Area,campground,"Martinsville, IN 46151, USA",Martinsville,IN,46151,Monroe County,39.3269183,-86.4275882,OPERATIONAL,4.6,128,,
Riverside R.V.Sites A.K.A.Camp David/Hollywood Park,rv_park,"3725 W Hwy 11, Mauckport, IN 47142, USA",Mauckport,IN,47142,Harrison County,38.0212407,-86.2010180,OPERATIONAL,4.3,24,(812) 732-4919,
Stag Run Club,campground,"2150 Overlook Dr SW, Mauckport, IN 47142, USA",Mauckport,IN,47142,Harrison County,38.0416637,-86.1716351,CLOSED_TEMPORARILY,4.7,82,(502) 509-6698,http://www.stagrunclub.com/
Leisure Time Oasis Campground,rv_park,"1974 N Leisure Time Ln, Medaryville, IN 47957, USA",Medaryville,IN,47957,Pulaski County,41.0834780,-86.8115560,OPERATIONAL,5.0,21,(219) 335-9183,https://letscampoasis.mybusiness.site/
Dune Creek Manufactured Home Community,rv_park,"9801 US-12, Michigan City, IN 46360, USA",Michigan City,IN,46360,LaPorte County,41.7500080,-86.8129950,OPERATIONAL,4.9,14,(269) 235-9015,https://dunecreekmhc.com/
Green Acres Manufactured Home Community,rv_park,"800 IN-212 lot A5N, Michigan City, IN 46360, USA",Michigan City,IN,46360,LaPorte County,41.7181211,-86.8232892,OPERATIONAL,3.3,222,(219) 872-8577,https://greenacresmanufacturedhomes.com/
Michigan City Campground,rv_park,"1601 US-421, Michigan City, IN 46360, USA",Michigan City,IN,46360,LaPorte County,41.6326250,-86.8929636,OPERATIONAL,4.2,568,(219) 872-7600,http://www.michigancitycampground.com/
Elkhart Co. / Middlebury KOA Holiday,rv_park,"52867 IN-13, Middlebury, IN 46540, USA",Middlebury,IN,46540,Elkhart County,41.7275528,-85.6840595,OPERATIONAL,4.1,636,(574) 825-5932,https://koa.com/campgrounds/elkhart-co/?utm_source=google&utm_medium=organic&utm_campaign=gbp
Pine Hills,rv_park,"12515 Bonnie Ln, Middlebury, IN 46540, USA",Middlebury,IN,46540,Elkhart County,41.7249940,-85.7081815,OPERATIONAL,3.7,93,(574) 821-7127,https://www.suncommunities.com/indiana/pine-hills?utm_source=google&utm_medium=organic&utm_campaign=gbp_listing
Spring Valley Campground,campground,"8186 W County Rd 575 N, Middletown, IN 47356, USA",Middletown,IN,47356,Henry County,40.0183250,-85.5400270,OPERATIONAL,4.4,208,(765) 354-4521,http://springvalleycampground.org/
Campground Control Station,campground,"Milan, IN 47031, USA",Milan,IN,47031,Ripley County,39.0758207,-85.2261544,OPERATIONAL,4.6,30,,
Delaware Campground,campground,"4258 N Co Rd 150 E, Milan, IN 47031, USA",Milan,IN,47031,Ripley County,39.1383179,-85.2342967,OPERATIONAL,4.4,58,(812) 689-5818,https://www.facebook.com/Delaware-Campground-398740300277908/
Cave Country Canoes,campground,"112 W Main St, Milltown, IN 47145, USA",Milltown,IN,47145,Crawford County,38.3413670,-86.2745900,OPERATIONAL,4.7,1729,(812) 633-4806,https://cavecountrycanoes.com/
Old Mill Blue River Retreat- Primitive Camping,campground,"10500 E Daugherty Ln, Milltown, IN 47145, USA",Milltown,IN,47145,Crawford County,38.4097229,-86.2579167,OPERATIONAL,4.9,11,(812) 472-3140,http://oldmillcanoerental.com/
"Lake Shore Estates, LLC",rv_park,"815 W Douglas Rd #167, Mishawaka, IN 46545, USA",Mishawaka,IN,46545,St. Joseph County,41.7086450,-86.1954521,OPERATIONAL,4.1,55,(574) 272-9933,http://www.lakeshoreestatesmhc.com/
Campground,campground,"100 Spring Mill - Campground, Mitchell, IN 47446, USA",Mitchell,IN,47446,Lawrence County,38.7361721,-86.4028007,OPERATIONAL,4.5,24,,http://www.in.gov/dnr/parklake/2968.htm
Lakeside Estates,rv_park,"1 Northside Village, Mitchell, IN 47446, USA",Mitchell,IN,47446,Lawrence County,38.7452720,-86.4750760,OPERATIONAL,3.3,43,(812) 849-3800,
Martin State Forest Campground,campground,"Unnamed Road, Mitchell, IN 47446, USA",Mitchell,IN,47446,Martin County,38.6989221,-86.7217904,OPERATIONAL,4.1,16,,
Adventure Bound Camping Resorts - Kamp Modoc,rv_park,"9773 S 800 W, Modoc, IN 47358, USA",Modoc,IN,47358,Randolph County,40.0221741,-85.1262383,OPERATIONAL,4.0,315,(765) 853-5290,https://www.abcamping.com/kampmodoc/
Modoc RV Park,rv_park,"8419 S 800 W, Modoc, IN 47358, USA",Modoc,IN,47358,Randolph County,40.0418223,-85.1264714,OPERATIONAL,4.8,21,(765) 729-4788,
Pigeon River Fish & Wildlife Area,campground,"8310 E 300 N Box 71, Mongo, IN 46771, USA",Mongo,IN,46771,LaGrange County,41.6849479,-85.2669686,OPERATIONAL,4.6,203,(260) 367-2164,http://www.in.gov/dnr/fishwild/3086.htm
Trading Post Outfitters,campground,"7525 E 300 N, Mongo, IN 46771, USA",Mongo,IN,46771,LaGrange County,41.6858210,-85.2824227,OPERATIONAL,4.7,792,(260) 367-2493,https://www.mongotradingpost.com/
Dream Acres Camp Ground,campground,"2746 IN-16, Monon, IN 47959, USA",Monon,IN,47959,White County,40.8676453,-86.8199568,OPERATIONAL,4.4,82,(219) 253-8224,
Rising Sun Campground,campground,"7510 County Rd N 250 E, Monterey, IN 46960, USA",Monterey,IN,46960,Pulaski County,41.1641930,-86.5579326,OPERATIONAL,4.6,330,(574) 542-4780,http://www.risingsuncamp.com/
Glendale Campground,campground,"141702100006000004, Montgomery, IN 47558, USA",Montgomery,IN,47558,Daviess County,38.5496103,-87.0425221,OPERATIONAL,4.6,129,(812) 644-6107,https://www.in.gov/dnr/fishwild/3095.htm
Hudsonville Family Campground,campground,"5064 County Rd 800 S, Montgomery, IN 47558, USA",Montgomery,IN,47558,Daviess County,38.5392860,-87.0707105,OPERATIONAL,4.7,30,(812) 486-6215,
Montgomery Camp Office,campground,"6836 Park Rd, Montgomery, IN 47558, USA",Montgomery,IN,47558,Daviess County,38.6695665,-87.0410629,OPERATIONAL,4.6,37,(812) 486-3255,http://montgomeryruritan.com/
Montgomery Ruritan Club,campground,"6907 E Pk Rd, Montgomery, IN 47558, USA",Montgomery,IN,47558,Daviess County,38.6688294,-87.0384262,OPERATIONAL,4.6,56,(812) 486-3255,http://montgomeryruritan.com/
Angel Shores Mobile Home Park,rv_park,"11730 W 850 N #30, Monticello, IN 47960, USA",Monticello,IN,47960,Carroll County,40.6725730,-86.7466430,OPERATIONAL,4.8,17,(574) 965-4772,
Elson Ponderosa Trailer Park,rv_park,"Monticello, IN 47960, USA",Monticello,IN,47960,White County,40.8686142,-86.7684384,OPERATIONAL,4.4,33,,
Indiana Beach / Monticello KOA Holiday,rv_park,"2882 NW Shafer Dr, Monticello, IN 47960, USA",Monticello,IN,47960,White County,40.7943563,-86.7810692,OPERATIONAL,3.6,288,(574) 583-8646,https://koa.com/campgrounds/indiana-beach/?utm_source=google&utm_medium=organic&utm_campaign=gbp
Indiana Beach Boardwalk Resort,campground,"5224 E Indiana Beach Rd, Monticello, IN 47960, USA",Monticello,IN,47960,White County,40.7913758,-86.7713029,CLOSED_TEMPORARILY,4.1,5819,(574) 583-4141,https://www.indianabeach.com/
Indiana Beach Camp Grounds,campground,"2732 NW Shafer Dr, Monticello, IN 47960, USA",Monticello,IN,47960,White County,40.7920603,-86.7803299,OPERATIONAL,3.9,721,(574) 583-4141,http://www.indianabeach.com/
Lake Hill Park,rv_park,"3832 NW Shafer Dr, Monticello, IN 47960, USA",Monticello,IN,47960,White County,40.8089302,-86.7972596,OPERATIONAL,4.9,18,(219) 253-7818,https://www.lakehillpark.com/
Lost Acres Camping Resort,rv_park,"3148 N 400 E, Monticello, IN 47960, USA",Monticello,IN,47960,White County,40.7995293,-86.7955748,OPERATIONAL,4.0,213,(574) 297-5043,https://roadville.com/lost-acres
Stevenson's Point LLC,rv_park,"4263 E 400 N, Monticello, IN 47960, USA",Monticello,IN,47960,White County,40.8112426,-86.7892927,OPERATIONAL,4.6,53,(574) 583-3238,
Walnut Ridge RV Resort,campground,"11752 W 800 N, Monticello, IN 47960, USA",Monticello,IN,47960,Carroll County,40.6645486,-86.7510785,OPERATIONAL,4.3,19,(574) 583-9300,https://walnutridgervresort.com/
White Oaks on the Lake RV Resort,campground,"12084 N White Oaks Dr, Monticello, IN 47960, USA",Monticello,IN,47960,Carroll County,40.6840643,-86.7522063,OPERATIONAL,4.5,169,(765) 491-8976,http://www.whiteoaksrv.com/
Moores Hill Manufactured Home Community,rv_park,"14633 IN-350, Moores Hill, IN 47032, USA",Moores Hill,IN,47032,Dearborn County,39.1178121,-85.0905123,OPERATIONAL,2.9,28,(930) 233-0247,https://brightstarcommunities.com/community/moores-hill/
Ashbury Ridge Manufactured Home Community,rv_park,"47 Ashbury Ridge, Mooresville, IN 46158, USA",Mooresville,IN,46158,Morgan County,39.5896280,-86.3368530,OPERATIONAL,4.3,65,(317) 831-0587,http://www.ashburyridge.com/
CICA Campgrounds,campground,"9023 N Old State Rd 67, Mooresville, IN 46158, USA",Mooresville,IN,46158,Morgan County,39.5586315,-86.3737683,OPERATIONAL,4.2,11,(317) 831-7580,http://cicacamp.org/contact/
Country Manor,rv_park,"64-110 Chisholm Trail, Mooresville, IN 46158, USA",Mooresville,IN,46158,Morgan County,39.5520043,-86.3794470,OPERATIONAL,3.5,101,(317) 831-6440,
Echo Lake Manufactured Home Community,rv_park,"825 W Greencastle Rd, Mooresville, IN 46158, USA",Mooresville,IN,46158,Morgan County,39.6151328,-86.4434445,OPERATIONAL,3.7,191,(317) 831-1090,https://www.echolakemhc.com/
Mooresville Acres,rv_park,"1 Chisholm Trail, Mooresville, IN 46158, USA",Mooresville,IN,46158,Morgan County,39.5516324,-86.3787095,OPERATIONAL,3.2,207,(317) 483-3066,http://horizonlandmgmt.com/
Bill Monroe Music Park & Campground,rv_park,"5163 N State Rd 135, Morgantown, IN 46160, USA",Morgantown,IN,46160,Brown County,39.2704091,-86.2486618,OPERATIONAL,4.4,555,(812) 988-6422,http://www.billmonroemusicpark.com/
Camp Buckwood,campground,"8670 Spearsville Rd, Morgantown, IN 46160, USA",Morgantown,IN,46160,Brown County,39.3233110,-86.2167629,OPERATIONAL,4.7,77,(812) 597-2450,https://campbuckwood.com/
Four Seasons Inn & RV Park,rv_park,"70 IN-62 West, Mt Vernon, IN 47620, USA",Mount Vernon,IN,47620,Posey County,37.9284934,-87.9276580,OPERATIONAL,4.4,159,(812) 838-4821,
Russell Mobile Home Park,rv_park,"1600 Seibert Ln, Mt Vernon, IN 47620, USA",Mount Vernon,IN,47620,Posey County,37.9502729,-87.8651859,OPERATIONAL,2.7,40,(812) 901-5818,https://www.facebook.com/mountvernonmobilehomepark
Big Oak Campground,rv_park,"9401 N 500 W Rd, Muncie, IN 47304, USA",Muncie,IN,47304,Delaware County,40.2742564,-85.4839164,OPERATIONAL,4.0,155,(765) 358-3208,http://www.bigoakcampground.com/
Country Acres LLC,rv_park,"9500 Wheeling Ave #70, Muncie, IN 47304, USA",Muncie,IN,47304,Delaware County,40.2753829,-85.4320766,OPERATIONAL,3.4,75,(765) 282-9196,
Countryside Estates,,"4412 S Clubhouse Rd, Muncie, IN 47302, USA",Muncie,IN,47302,Delaware County,40.1534732,-85.3689766,OPERATIONAL,3.9,44,(765) 288-9740,https://www.umh.com/community/countryside-estates-in/?utm_source=GMBlisting&utm_medium=organic
Countryview Farms Manufactured Home Community,rv_park,"5900 W Co Rd 350 N #45, Muncie, IN 47304, USA",Muncie,IN,47304,Delaware County,40.2411590,-85.4539779,OPERATIONAL,3.2,192,(765) 282-6949,https://www.bayshorehomesales.com/communities/countryviewfarmsin?utm_campaign=WebsiteURL&utm_medium=organic&utm_source=GMB
Holiday Park,rv_park,"3500 W Brookfield Dr, Muncie, IN 47302, USA",Muncie,IN,47302,Delaware County,40.1768608,-85.4262924,OPERATIONAL,4.0,90,(765) 287-1186,https://hpimhc.com/community/holiday-park-homes/
Meadowview Farms Manufactured Home Community,rv_park,"3401 N Meadowview Pl, Muncie, IN 47303, USA",Muncie,IN,47303,Delaware County,40.2205798,-85.3568013,OPERATIONAL,3.7,87,(765) 741-9054,https://www.bayshorehomesales.com/communities/meadowviewfarmsin?utm_campaign=WebsiteURL&utm_medium=organic&utm_source=GMB
Away A Day RV Campground,campground,"5515 IN-46, Nashville, IN 47448, USA",Nashville,IN,47448,Brown County,39.1934147,-86.1450867,OPERATIONAL,4.7,74,(812) 568-1209,https://www.awayadayrvcampground.com/
Brown County / Nashville KOA Holiday,rv_park,"2248 IN-46, Nashville, IN 47448, USA",Nashville,IN,47448,Brown County,39.1989775,-86.2047312,OPERATIONAL,4.6,408,(812) 988-4675,https://koa.com/campgrounds/brown-county/?utm_source=google&utm_medium=organic&utm_campaign=gbp
Brown County State Park,campground,"Unnamed Road, Nashville, IN 47448, USA",Nashville,IN,47448,Brown County,39.1549854,-86.2362349,OPERATIONAL,4.7,62,,https://on.in.gov/browncountysp
Brown County State Park Raccoon Ridge Campground,campground,"Deer Ln, Nashville, IN 47448, USA",Nashville,IN,47448,Brown County,39.1495016,-86.2315652,OPERATIONAL,4.6,28,(812) 988-6406,https://on.in.gov/browncountysp
Brown County State Park Taylor Ridge,campground,"Nashville, IN 47448, USA",Nashville,IN,47448,Brown County,39.1474288,-86.2388586,OPERATIONAL,4.6,21,,
eXplore Brown County,rv_park,"2620 Valley Branch Rd, Nashville, IN 47448, USA",Nashville,IN,47448,Brown County,39.1607595,-86.1530368,OPERATIONAL,4.8,543,(812) 988-7750,http://explorebrowncounty.com/
Friends O' Mine Campground & Cabins,campground,"4557 IN-46, Nashville, IN 47448, USA",Nashville,IN,47448,Brown County,39.1899258,-86.1618232,OPERATIONAL,4.3,344,(812) 988-0008,http://www.friendsominecampground.com/
Horsemen's Campground,campground,"Nashville, IN 47448, USA",Nashville,IN,47448,Brown County,39.1241884,-86.1910680,OPERATIONAL,5.0,2,,
Yellowwood Campground,campground,"Nashville, IN 47448, USA",Nashville,IN,47448,Brown County,39.1918973,-86.3451372,OPERATIONAL,4.7,35,(812) 988-7945,https://www.in.gov/dnr/forestry/properties/yellowwood-state-forest/
Yellowwood State Forest Camp Sites,campground,"Nashville, IN 47448, USA",Nashville,IN,47448,Brown County,39.1791616,-86.3364126,OPERATIONAL,4.8,28,,
The Pines,rv_park,"100 White Pine Blvd, New Albany, IN 47150, USA",New Albany,IN,47150,Floyd County,38.3530846,-85.8158282,OPERATIONAL,4.0,58,(812) 949-3064,http://liveatthepines.com/
Lakeside RV Resort,rv_park,"7089 N Chicago Rd, New Carlisle, IN 46552, USA",New Carlisle,IN,46552,LaPorte County,41.7096561,-86.5370245,OPERATIONAL,3.9,45,(574) 654-3260,http://www.rvonthego.com/indiana/lakeside-rv-resort/
Mini Mountain Campground,rv_park,"32351 IN-2, New Carlisle, IN 46552, USA",New Carlisle,IN,46552,St. Joseph County,41.6749829,-86.4946994,OPERATIONAL,3.7,252,(574) 340-9923,http://www.minimountaincampgrounds.com/
Cornerstone Campground and Retreat Center,campground,"75 W County Road 500 S, New Castle, IN 47362, USA",New Castle,IN,47362,Henry County,39.8557670,-85.3869000,OPERATIONAL,4.7,221,(765) 987-8700,http://cornerstonecampground.org/
Glenwood Park,rv_park,"300 Glenwood Dr, New Castle, IN 47362, USA",New Castle,IN,47362,Henry County,39.9165769,-85.3876300,OPERATIONAL,3.5,38,(765) 529-4706,
New Castle Mobile Home Community,rv_park,"2121, lot 157 Spring St, New Castle, IN 47362, USA",New Castle,IN,47362,Henry County,39.9332357,-85.3816490,OPERATIONAL,3.1,82,(765) 529-8340,
Walnut Ridge Campground,campground,"408 N County Rd 300 W, New Castle, IN 47362, USA",New Castle,IN,47362,Henry County,39.9377145,-85.4436957,OPERATIONAL,4.3,122,(765) 533-6699,https://www.walnutridgecampground.com/
Westwood Park,campground,"1900 S County Rd 275 W, New Castle, IN 47362, USA",New Castle,IN,47362,Henry County,39.9021070,-85.4368971,OPERATIONAL,4.3,148,(765) 987-1232,http://www.visitwestwood.com/
Harmonie State Park,,"3451 Harmonie State Park Rd, New Harmony, IN 47631, USA",New Harmony,IN,47631,Posey County,38.0901157,-87.9446313,OPERATIONAL,4.6,693,(812) 682-4821,http://on.in.gov/harmoniesp
Harmonie State Park Campground,campground,"3451 Harmonie State Park Rd, New Harmony, IN 47631, USA",New Harmony,IN,47631,Posey County,38.0621474,-87.9481365,OPERATIONAL,4.8,71,(812) 682-4821,https://indianastateparks.reserveamerica.com/
Jefferson Township Park,,"1702 Webster Rd, New Haven, IN 46774, USA",New Haven,IN,46774,Allen County,41.0746003,-84.9235981,OPERATIONAL,4.6,45,(260) 209-4270,http://jeffersontownshippark.com/
Heritage Hills Pointe East Mobile Home Park,rv_park,"4833 Salem Dr, Newburgh, IN 47630, USA",Newburgh,IN,47630,Warrick County,37.9620644,-87.3764599,OPERATIONAL,2.8,22,(812) 202-5463,
Heritage Hills Pointe West Mobile Home Park,rv_park,"7419 IN-66, Newburgh, IN 47630, USA",Newburgh,IN,47630,Warrick County,37.9643213,-87.3786558,OPERATIONAL,4.2,5,(812) 202-5463,https://yougotithomes.com/community/heritage-hills-pointe-west/
Knob Hill Place,rv_park,"1000 IN-662, Newburgh, IN 47630, USA",Newburgh,IN,47630,Warrick County,37.9518204,-87.4173115,OPERATIONAL,4.3,40,(812) 853-3138,http://knob-hill-place.jany.io/
Backstage Campground,campground,"15017 Prairie Baptist Rd, Noblesville, IN 46060, USA",Noblesville,IN,46060,Hamilton County,40.0084549,-85.9021724,OPERATIONAL,4.5,24,(317) 258-3759,http://www.backstagecamp.net/
Koteewi Run Seasonal Slopes,campground,"11800 Koteewi Dr, Noblesville, IN 46060, USA",Noblesville,IN,46060,Hamilton County,40.1180626,-85.9636918,OPERATIONAL,4.4,282,(317) 776-9199,https://www.koteewi-adventures.com/
Mud Creek Campgrounds,campground,"15420 E 146th St, Noblesville, IN 46060, USA",Noblesville,IN,46060,Hamilton County,40.0027219,-85.8893185,OPERATIONAL,4.7,42,(317) 420-1090,https://www.mudcreekcampgrounds.com/
Sleepybear Campground,campground,"13231 E 146th St, Noblesville, IN 46060, USA",Noblesville,IN,46060,Hamilton County,40.0007171,-85.9297958,OPERATIONAL,4.6,326,(317) 691-2339,http://sleepybearcampground.com/
Suburban Estates Mobile Home,rv_park,"3288 Cicero Rd #25, Noblesville, IN 46060, USA",Noblesville,IN,46060,Hamilton County,40.0918552,-86.0118384,OPERATIONAL,3.6,39,(317) 431-3390,
Tall Timbers Mobile Home Park,rv_park,"15042 IN-32 E Lot # Office, Noblesville, IN 46060, USA",Noblesville,IN,46060,Hamilton County,40.0590580,-85.8981047,OPERATIONAL,3.0,34,(317) 969-8009,
Westbrook Village Mobile Home,rv_park,"17301 River Rd #164, Noblesville, IN 46062, USA",Noblesville,IN,46062,Hamilton County,40.0383743,-86.0313430,OPERATIONAL,4.3,135,(317) 773-7003,
Potato Creek State Park Campground,campground,"North Liberty, IN 46554, USA",North Liberty,IN,46554,St. Joseph County,41.5577081,-86.3606923,OPERATIONAL,4.7,89,(574) 656-8186,https://www.in.gov/dnr/state-parks/rates-and-fees/camping-fees/
Art's Country Park,campground,"4071 E 1000 N, North Manchester, IN 46962, USA",North Manchester,IN,46962,Wabash County,40.9727188,-85.7198427,OPERATIONAL,4.6,63,(260) 982-4790,http://www.artscountrypark.com/
Long Lake Resort,rv_park,"11082 N 200 W #2600, North Manchester, IN 46962, USA",North Manchester,IN,46962,Wabash County,40.9864660,-85.8377860,OPERATIONAL,4.8,113,(765) 404-2556,http://camplonglakeresort.com/
Brookside Estates,rv_park,"10 Sandy Brook Dr, North Vernon, IN 47265, USA",North Vernon,IN,47265,Jennings County,39.0131416,-85.6457977,OPERATIONAL,3.6,52,(812) 346-3573,http://parkbridgehomes.com/communities/brookside-estates-mhp/
Deer Creek Campground,campground,"505 Private Rd 250 N, North Vernon, IN 47265, USA",North Vernon,IN,47265,Jennings County,39.0222550,-85.6020942,OPERATIONAL,4.5,40,(812) 346-6910,
Camp Crosley YMCA (Main Camp),campground,"165 EMS T2 Ln, North Webster, IN 46555, USA",North Webster,IN,46555,Kosciusko County,41.3177824,-85.7222654,OPERATIONAL,4.6,152,(574) 834-2331,http://campcrosley.org/
Ponderosa Campground,campground,"9500 E Ponderosa Dr, North Webster, IN 46555, USA",North Webster,IN,46555,Kosciusko County,41.3081735,-85.6619717,OPERATIONAL,4.0,16,(574) 549-5147,
Webster Estates Mobile Home Community,rv_park,"312 Crystal Flash Rd, North Webster, IN 46555, USA",North Webster,IN,46555,Kosciusko County,41.3316248,-85.6999600,OPERATIONAL,5.0,1,(574) 834-2299,http://websterest.twa.rentmanager.com/applynow
New Lake Campground,,"2205 S 1350 E, Oakland City, IN 47660, USA",Oakland City,IN,47660,Gibson County,38.3233947,-87.3201980,OPERATIONAL,4.5,111,(812) 568-1390,
New Vision RV Park,rv_park,"13552 US-41, Oaktown, IN 47561, USA",Oaktown,IN,47561,Knox County,38.8741141,-87.4349220,OPERATIONAL,4.2,91,(812) 745-2125,http://www.newvisionrvpark.com/
