master_id,nome_propriedade,tipo,endereco_propriedade,cidade,estado,cep,condado,lat,lon,status,avaliacao_media,total_avaliacoes,telefone_propriedade,website_propriedade,email_propriedade,nome_proprietario,tipo_proprietario,endereco_correspondencia,cidade_correspondencia,estado_correspondencia,cep_correspondencia,nome_contato,cargo_contato,email_contato,telefone_contato,nome_empresa,tipo_negocio,agente_registrado,data_fundacao,telefone_final,email_final,website_final,tier_qualidade
587356f3-9f6d-4c28-abfe-e77fb00c13ad,Chain O’ Lakes Campground,campground,"Campground, Albion, IN 46701, USA",Albion,IN,46701,Noble County,41.3291450,-85.3710404,OPERATIONAL,4.6,312,(260) 636-2654,https://www.in.gov/dnr/state-parks/parks-lakes/chain-o-lakes-state-park/,,Chain O’ Lakes Campground,business,"Campground, Albion, IN 46701, USA",Albion,IN,46701,,,,,,,,,(260) 636-2654,,https://www.in.gov/dnr/state-parks/parks-lakes/chain-o-lakes-state-park/,A
69cdedca-20e1-4b22-a139-78dc9325d39c,Orchard Ridge Estates,rv_park,"305 S 4th St, Albion, IN 46701, USA",Albion,IN,46701,Noble County,41.3938931,-85.4140058,OPERATIONAL,5.0,1,(201) 989-6102,,,Orchard Ridge Estates,business,"305 S 4th St, Albion, IN 46701, USA",Albion,IN,46701,,,,,,,,,(201) 989-6102,,,A
efd94788-abc5-4a46-82aa-b2a8faa740a8,Shady Haven Resort,rv_park,"3100 W Baseline Rd, Albion, IN 46701, USA",Albion,IN,46701,Noble County,41.3532333,-85.4846038,OPERATIONAL,4.1,49,,,,Shady Haven Resort,business,"3100 W Baseline Rd, Albion, IN 46701, USA",Albion,IN,46701,,,,,,,,,,,,B
0e015cf0-ffeb-4336-bd34-8983e250b6d7,Hoosierland Campground,campground,"2641 E 1300 N, Alexandria, IN 46001, USA",Alexandria,IN,46001,Madison County,40.2907379,-85.6220401,OPERATIONAL,4.4,189,(765) 724-2530,http://hoosierlandcampground.com/,,Hoosierland Campground,business,"2641 E 1300 N, Alexandria, IN 46001, USA",Alexandria,IN,46001,,,,,,,,,(765) 724-2530,,http://hoosierlandcampground.com/,A
45065a05-318d-4558-90d5-a0ba690834ad,Anderson Manufactured Home Community,rv_park,"328 W 53rd St #27, Anderson, IN 46013, USA",Anderson,IN,46013,Madison County,40.0618327,-85.6836357,OPERATIONAL,3.9,97,(765) 274-5554,https://endeavorcommunities.com/community/anderson-manufactured-home-community/,,Anderson Manufactured Home Community,business,"328 W 53rd St #27, Anderson, IN 46013, USA",Anderson,IN,46013,,,,,,,,,(765) 274-5554,,https://endeavorcommunities.com/community/anderson-manufactured-home-community/,A
e029d63a-4a2e-45ab-9033-e50e79bff916,Cottonwood RV Park,rv_park,"2206 S Rangeline Rd, Anderson, IN 46012, USA",Anderson,IN,46012,Madison County,40.0951982,-85.6333499,OPERATIONAL,5.0,4,(765) 208-1673,,,Cottonwood RV Park,business,"2206 S Rangeline Rd, Anderson, IN 46012, USA",Anderson,IN,46012,,,,,,,,,(765) 208-1673,,,A
fcf6c59d-76cf-4947-9bff-6184e5d1a37c,Countryside Village,rv_park,"278 W 375 N, Anderson, IN 46012, USA",Anderson,IN,46012,Madison County,40.1623843,-85.6772584,OPERATIONAL,3.3,30,(765) 606-9928,,,Countryside Village,business,"278 W 375 N, Anderson, IN 46012, USA",Anderson,IN,46012,,,,,,,,,(765) 606-9928,,,A
a2223dc7-9329-4353-95fe-01183e3f1400,Deerfield Run Pointe Mobile Home Park,rv_park,"2735 Autumn Lake Dr, Anderson, IN 46017, USA",Anderson,IN,46017,Madison County,40.0720190,-85.6206516,OPERATIONAL,3.5,154,(765) 643-4580,https://yougotithomes.com/community/deerfield-run-pointe/,,Deerfield Run Pointe Mobile Home Park,business,"2735 Autumn Lake Dr, Anderson, IN 46017, USA",Anderson,IN,46017,,,,,,,,,(765) 643-4580,,https://yougotithomes.com/community/deerfield-run-pointe/,A
bd967b80-7e74-4656-8874-1af90d0214cf,Edgewood MHP,rv_park,"1810 W 53rd St, Anderson, IN 46013, USA",Anderson,IN,46013,Madison County,40.0621686,-85.7065961,OPERATIONAL,3.1,37,(765) 641-9994,,,Edgewood MHP,business,"1810 W 53rd St, Anderson, IN 46013, USA",Anderson,IN,46013,,,,,,,,,(765) 641-9994,,,A
a8dfff1f-8d05-4925-b18b-4d55533da82d,Mounds Mobile Home Park,rv_park,"2721 Mounds Rd, Anderson, IN 46016, USA",Anderson,IN,46016,Madison County,40.0887985,-85.6418457,OPERATIONAL,3.2,37,(765) 642-5939,,,Mounds Mobile Home Park,business,"2721 Mounds Rd, Anderson, IN 46016, USA",Anderson,IN,46016,,,,,,,,,(765) 642-5939,,,A
f2754da1-86ce-47a9-8ce2-7a1b195cd664,Mounds State Park Family Campgrounds,campground,"Anderson, IN 46017, USA",Anderson,IN,46017,Madison County,40.1065342,-85.6159483,OPERATIONAL,4.6,103,(765) 642-6627,https://indianastateparks.reserveamerica.com/camping/mounds-state-park/r/campgroundDetails.do?contractCode=IN&parkId=570027,,Mounds State Park Family Campgrounds,business,"Anderson, IN 46017, USA",Anderson,IN,46017,,,,,,,,,(765) 642-6627,,https://indianastateparks.reserveamerica.com/camping/mounds-state-park/r/campgroundDetails.do?contractCode=IN&parkId=570027,A
4bd211e4-88f6-4dbf-b9d9-94b77317d9ac,Muncie RV Resort,rv_park,"3230 E 75 N, Anderson, IN 46017, USA",Anderson,IN,46017,Madison County,40.1170624,-85.6105095,OPERATIONAL,4.2,429,(765) 259-3305,https://rjourney.com/park/in/muncie/?utm_source=gmb&utm_medium=organic&utm_campaign=muncie,,Muncie RV Resort,business,"3230 E 75 N, Anderson, IN 46017, USA",Anderson,IN,46017,,,,,,,,,(765) 259-3305,,https://rjourney.com/park/in/muncie/?utm_source=gmb&utm_medium=organic&utm_campaign=muncie,A
421b66e2-b4e5-4f79-b8c8-4d052782f6d0,Redbud Estates,rv_park,"1800 W 38th St, Anderson, IN 46013, USA",Anderson,IN,46013,Madison County,40.0772828,-85.7023465,OPERATIONAL,3.5,83,(765) 644-4479,https://umh.com/community/redbud-estates/,,Redbud Estates,business,"1800 W 38th St, Anderson, IN 46013, USA",Anderson,IN,46013,,,,,,,,,(765) 644-4479,,https://umh.com/community/redbud-estates/,A
20b87cb8-f1cd-4906-8887-1f9bfe77fa58,Rustic Manor Manufactured Home Community,rv_park,"1625 B St, Anderson, IN 46016, USA",Anderson,IN,46016,Madison County,40.0986983,-85.6608690,OPERATIONAL,3.4,70,(765) 615-4270,http://rusticmanormhp.com/,,Rustic Manor Manufactured Home Community,business,"1625 B St, Anderson, IN 46016, USA",Anderson,IN,46016,,,,,,,,,(765) 615-4270,,http://rusticmanormhp.com/,A
d628a0e7-6d41-4dfd-8e4b-208b0fa747b4,Shady Rest Mobile Parks,rv_park,"325 E Cross St #11, Anderson, IN 46012, USA",Anderson,IN,46012,Madison County,40.1349151,-85.6722953,OPERATIONAL,3.5,20,(317) 764-8313,,,Shady Rest Mobile Parks,business,"325 E Cross St #11, Anderson, IN 46012, USA",Anderson,IN,46012,,,,,,,,,(317) 764-8313,,,A
3bd390ea-5d23-4746-8dbd-87ee28aa1464,Apple Orchard Primitive Campground,campground,"New Holland Road, Andrews, IN 46702, USA",Andrews,IN,46702,Huntington County,40.7661924,-85.6314772,OPERATIONAL,4.5,71,(260) 468-2125,http://www.in.gov/dnr/parklake/2952.htm,,Apple Orchard Primitive Campground,business,"New Holland Road, Andrews, IN 46702, USA",Andrews,IN,46702,,,,,,,,,(260) 468-2125,,http://www.in.gov/dnr/parklake/2952.htm,A
15d01497-b8ab-47dd-a91c-ff5ebd4e6cad,Lost Bridge State Recreation Area,,"9214 Lost Bridge Rd W, Andrews, IN 46702, USA",Andrews,IN,46702,,40.7697719,-85.6268729,OPERATIONAL,4.7,423,(260) 468-2125,http://www.in.gov/dnr/parklake/2952.htm,,Lost Bridge State Recreation Area,business,"9214 Lost Bridge Rd W, Andrews, IN 46702, USA",Andrews,IN,46702,,,,,,,,,(260) 468-2125,,http://www.in.gov/dnr/parklake/2952.htm,A
f62e0152-a743-42bc-b128-92a26afaf724,Salamonie Lake Modern Campground,campground,"9214 Lost Bridge Rd W, Andrews, IN 46702, USA",Andrews,IN,46702,Huntington County,40.7744707,-85.6396901,OPERATIONAL,4.6,135,(260) 468-2125,https://www.reserveamerica.com/explore/salamonie-lake/IN/570041/overview,,Salamonie Lake Modern Campground,business,"9214 Lost Bridge Rd W, Andrews, IN 46702, USA",Andrews,IN,46702,,,,,,,,,(260) 468-2125,,https://www.reserveamerica.com/explore/salamonie-lake/IN/570041/overview,A
cb888a43-5bc0-4294-873a-603971be8b33,Angola / Hogback Lake KOA Holiday,rv_park,"5251 US-20, Angola, IN 46703, USA",Angola,IN,46703,Steuben County,41.6333200,-85.0866300,OPERATIONAL,4.0,725,(260) 665-5353,https://koa.com/campgrounds/angola/?utm_source=google&utm_medium=organic&utm_campaign=gbp,,Angola / Hogback Lake KOA Holiday,business,"5251 US-20, Angola, IN 46703, USA",Angola,IN,46703,,,,,,,,,(260) 665-5353,,https://koa.com/campgrounds/angola/?utm_source=google&utm_medium=organic&utm_campaign=gbp,A
799a4a89-cd7e-4734-8a45-55a6821cc65c,Camp Sack-In,campground,"8740 E 40 S, Angola, IN 46703, USA",Angola,IN,46703,Steuben County,41.6417250,-84.8243940,OPERATIONAL,4.3,108,(260) 665-5166,http://www.campsack-in.com/,,Camp Sack-In,business,"8740 E 40 S, Angola, IN 46703, USA",Angola,IN,46703,,,,,,,,,(260) 665-5166,,http://www.campsack-in.com/,A
c117477d-d837-4649-a733-b91bfcfa1ac6,Happy Acres Campground,rv_park,"1940 S 300 W, Angola, IN 46703, USA",Angola,IN,46703,Steuben County,41.6145224,-85.0456061,OPERATIONAL,4.7,275,(260) 665-9843,http://camphappyacres.com/,,Happy Acres Campground,business,"1940 S 300 W, Angola, IN 46703, USA",Angola,IN,46703,,,,,,,,,(260) 665-9843,,http://camphappyacres.com/,A
152321a3-f49a-4660-8220-389448919e92,Lake James Campground,campground,"3545 N Bay View Rd, Angola, IN 46703, USA",Angola,IN,46703,Steuben County,41.6937720,-85.0390076,OPERATIONAL,4.4,63,(419) 822-3744,,,Lake James Campground,business,"3545 N Bay View Rd, Angola, IN 46703, USA",Angola,IN,46703,,,,,,,,,(419) 822-3744,,,A
b32fda72-4a32-435d-9f53-f3cc867e2b72,Silver Lake RV & MH Estates,rv_park,"4305 US-20, Angola, IN 46703, USA",Angola,IN,46703,Steuben County,41.6354424,-85.0704441,OPERATIONAL,3.3,107,(260) 665-3783,,,Silver Lake RV & MH Estates,business,"4305 US-20, Angola, IN 46703, USA",Angola,IN,46703,,,,,,,,,(260) 665-3783,,,A
0c5c6f97-a4c0-4bea-b1fd-9fdfc752bb60,West Otter Lake Campground,campground,"160 Ln 110 West Otter Lake, Angola, IN 46703, USA",Angola,IN,46703,Steuben County,41.6411926,-85.1653632,OPERATIONAL,4.4,82,(260) 665-8587,http://www.westotterlakecampground.com/,,West Otter Lake Campground,business,"160 Ln 110 West Otter Lake, Angola, IN 46703, USA",Angola,IN,46703,,,,,,,,,(260) 665-8587,,http://www.westotterlakecampground.com/,A
55e58f72-bbdc-412d-908f-c5457617565a,Colonial Court Mobile Home Park & Colonial Home Sales,rv_park,"205 W Marshall St, Argos, IN 46501, USA",Argos,IN,46501,Marshall County,41.2438926,-86.2532501,OPERATIONAL,4.1,53,(574) 892-5200,https://colonialcourtmhp.com/,,Colonial Court Mobile Home Park & Colonial Home Sales,business,"205 W Marshall St, Argos, IN 46501, USA",Argos,IN,46501,,,,,,,,,(574) 892-5200,,https://colonialcourtmhp.com/,A
6ef30f74-5737-4503-a3b3-6a25163548b5,"Klumpe Family Kampground, LLC",campground,"5509 N 200 E, Attica, IN 47918, USA",Attica,IN,47918,Warren County,40.3964202,-87.2818129,OPERATIONAL,4.8,79,(765) 490-1371,https://klumpefamilykampground.com/,,"Klumpe Family Kampground, LLC",business,"5509 N 200 E, Attica, IN 47918, USA",Attica,IN,47918,,,,,,,,,(765) 490-1371,,https://klumpefamilykampground.com/,A
cb70c7dc-0819-4faa-b339-52c604547f32,Off The Trail Vacation Rentals & Campground,campground,"3970 N Xavier Rd, Attica, IN 47918, USA",Attica,IN,47918,Fountain County,40.2717129,-87.2613886,OPERATIONAL,4.6,285,(765) 762-6189,http://www.offthetrailcampground.com/,,Off The Trail Vacation Rentals & Campground,business,"3970 N Xavier Rd, Attica, IN 47918, USA",Attica,IN,47918,,,,,,,,,(765) 762-6189,,http://www.offthetrailcampground.com/,A
d7c86a2c-b556-4d3e-b37a-9bb895d7e041,Auburn Crossing,rv_park,"1112 W Seventh St, Auburn, IN 46706, USA",Auburn,IN,46706,DeKalb County,41.3674894,-85.0765089,OPERATIONAL,3.7,144,(260) 508-3096,https://www.auburncrossingmhc.com/,,Auburn Crossing,business,"1112 W Seventh St, Auburn, IN 46706, USA",Auburn,IN,46706,,,,,,,,,(260) 508-3096,,https://www.auburncrossingmhc.com/,A
9ca58071-0a70-423b-8f98-1504b24ddbb0,Fireside Resort RV Park,rv_park,"5612 Co Rd 11A, Auburn, IN 46706, USA",Auburn,IN,46706,DeKalb County,41.3290006,-85.0904474,OPERATIONAL,3.6,160,(260) 925-6747,http://www.firesideresort.com/,,Fireside Resort RV Park,business,"5612 Co Rd 11A, Auburn, IN 46706, USA",Auburn,IN,46706,,,,,,,,,(260) 925-6747,,http://www.firesideresort.com/,A
6e8ef0fe-6600-4a44-ab83-958b6b2a4229,CampShore Camp Ground,campground,"8548 IN-56, Aurora, IN 47001, USA",Aurora,IN,47001,Ohio County,38.9969377,-84.8578757,OPERATIONAL,4.3,49,(812) 438-2135,http://campshoreontheriver.com/,,CampShore Camp Ground,business,"8548 IN-56, Aurora, IN 47001, USA",Aurora,IN,47001,,,,,,,,,(812) 438-2135,,http://campshoreontheriver.com/,A
6c53c286-11ac-4bf2-9156-c327e2b95f18,Beechwood Pointe Austin Mobile Home Park,rv_park,"1301 W York Rd Lot 6, Austin, IN 47102, USA",Austin,IN,47102,Scott County,38.7349143,-85.8238805,OPERATIONAL,3.6,72,(812) 480-2823,https://yougotithomes.com/community/beechwood-pointe/,,Beechwood Pointe Austin Mobile Home Park,business,"1301 W York Rd Lot 6, Austin, IN 47102, USA",Austin,IN,47102,,,,,,,,,(812) 480-2823,,https://yougotithomes.com/community/beechwood-pointe/,A
e3936f99-5c1b-4006-8825-6d05bca1d213,Avon Village Mobile Home Park,rv_park,"235 Avon Village Dr, Avon, IN 46123, USA",Avon,IN,46123,Hendricks County,39.7613380,-86.3558989,OPERATIONAL,3.9,128,(317) 271-0795,http://www.avonvillagemhc.com/,,Avon Village Mobile Home Park,business,"235 Avon Village Dr, Avon, IN 46123, USA",Avon,IN,46123,,,,,,,,,(317) 271-0795,,http://www.avonvillagemhc.com/,A
814ace08-979f-47db-9cff-e3a74c1e43de,Batesville KOA Journey,rv_park,"7234 IN-46, Batesville, IN 47006, USA",Batesville,IN,47006,Ripley County,39.2754666,-85.1313178,OPERATIONAL,4.1,319,(800) 562-3418,https://koa.com/campgrounds/batesville/?utm_source=google&utm_medium=organic&utm_campaign=gbp,,Batesville KOA Journey,business,"7234 IN-46, Batesville, IN 47006, USA",Batesville,IN,47006,,,,,,,,,(800) 562-3418,,https://koa.com/campgrounds/batesville/?utm_source=google&utm_medium=organic&utm_campaign=gbp,A
3a727411-bf81-4c33-afa5-f1f2c63f6a5c,Thousand Trails Indian Lakes,rv_park,"7234 IN-46, Batesville, IN 47006, USA",Batesville,IN,47006,Ripley County,39.2773905,-85.1281241,OPERATIONAL,3.7,675,(812) 934-5496,https://thousandtrails.com/indiana/indian-lakes-rv-campground/?utm_source=yext&utm_medium=directory&utm_campaign=Yext%20Directory%20Listing,,Thousand Trails Indian Lakes,business,"7234 IN-46, Batesville, IN 47006, USA",Batesville,IN,47006,,,,,,,,,(812) 934-5496,,https://thousandtrails.com/indiana/indian-lakes-rv-campground/?utm_source=yext&utm_medium=directory&utm_campaign=Yext%20Directory%20Listing,A
beecd901-9d28-4108-bb26-c97827b24e98,Camp Bedford,campground,"33 Church Camp Rd, Bedford, IN 47421, USA",Bedford,IN,47421,Lawrence County,38.8156930,-86.4860360,OPERATIONAL,4.7,52,(812) 329-1222,https://campbedford.com/,,Camp Bedford,business,"33 Church Camp Rd, Bedford, IN 47421, USA",Bedford,IN,47421,,,,,,,,,(812) 329-1222,,https://campbedford.com/,A
ecd498ee-6453-4575-8914-81122c41555a,Free Spirit Campground,rv_park,"4140 Erie Church Rd, Bedford, IN 47421, USA",Bedford,IN,47421,Lawrence County,38.8883423,-86.3413332,OPERATIONAL,4.5,94,(812) 834-6164,https://www.facebook.com/Free-Spirit-Campground-100343968362246/,,Free Spirit Campground,business,"4140 Erie Church Rd, Bedford, IN 47421, USA",Bedford,IN,47421,,,,,,,,,(812) 834-6164,,https://www.facebook.com/Free-Spirit-Campground-100343968362246/,A
c494d982-8c26-45ca-83d6-5e0e05550bc9,Town & Country Mobile Home Park,rv_park,"3104 29th St, Bedford, IN 47421, USA",Bedford,IN,47421,Lawrence County,38.8459061,-86.5131752,OPERATIONAL,3.3,11,(812) 275-4656,,,Town & Country Mobile Home Park,business,"3104 29th St, Bedford, IN 47421, USA",Bedford,IN,47421,,,,,,,,,(812) 275-4656,,,A
22e43fc1-6c54-46e1-99aa-91bee4d0450e,Camp Livingston,campground,"4998 Nell Lee Rd, Bennington, IN 47011, USA",Bennington,IN,47011,Switzerland County,38.8502345,-85.1116044,OPERATIONAL,4.6,37,(812) 427-2202,http://www.camplivingston.com/,,Camp Livingston,business,"4998 Nell Lee Rd, Bennington, IN 47011, USA",Bennington,IN,47011,,,,,,,,,(812) 427-2202,,http://www.camplivingston.com/,A
85ccda4b-29fa-47ac-8b0b-2fa54402a6f7,Drakes Ridge Rustic Nudist Retreat,campground,"9641 Drakes Ridge Rd, Bennington, IN 47011, USA",Bennington,IN,47011,Switzerland County,38.8273970,-85.1063800,OPERATIONAL,4.5,60,(812) 427-3914,http://www.drakesridge.com/,,Drakes Ridge Rustic Nudist Retreat,business,"9641 Drakes Ridge Rd, Bennington, IN 47011, USA",Bennington,IN,47011,,,,,,,,,(812) 427-3914,,http://www.drakesridge.com/,A
9f168bc2-04da-47d0-aaa5-823d4ce60fd7,Berne Mobile Home Park,rv_park,"345 Jackson St, Berne, IN 46711, USA",Berne,IN,46711,Adams County,40.6606597,-84.9464903,OPERATIONAL,4.7,26,(260) 209-4118,https://knightscommunities.com/berne-indiana-berne-mobile-home-park/,,Berne Mobile Home Park,business,"345 Jackson St, Berne, IN 46711, USA",Berne,IN,46711,,,,,,,,,(260) 209-4118,,https://knightscommunities.com/berne-indiana-berne-mobile-home-park/,A
2e4632d5-9ed0-406a-8885-4c11a4141f55,Patoka Lake,campground,"3084 Dillard Rd, Birdseye, IN 47513, USA",Birdseye,IN,47513,Crawford County,38.3837010,-86.6439988,OPERATIONAL,4.6,309,(812) 338-5589,http://www.in.gov/dnr/parklake/2953.htm,,Patoka Lake,business,"3084 Dillard Rd, Birdseye, IN 47513, USA",Birdseye,IN,47513,,,,,,,,,(812) 338-5589,,http://www.in.gov/dnr/parklake/2953.htm,A
be4a0de7-fb16-4816-839f-e97220c64ded,Whispering Meadows,rv_park,"9307 N Zimmerman Rd, Birdseye, IN 47513, USA",Birdseye,IN,47513,Crawford County,38.3763850,-86.6500685,OPERATIONAL,4.7,24,(970) 238-0555,,,Whispering Meadows,business,"9307 N Zimmerman Rd, Birdseye, IN 47513, USA",Birdseye,IN,47513,,,,,,,,,(970) 238-0555,,,A
5df32364-1408-4cab-a3a9-3df91b914792,Wildridge RV Resort,rv_park,"2905 Dillard Rd, Birdseye, IN 47513, USA",Birdseye,IN,47513,Crawford County,38.3787249,-86.6442091,OPERATIONAL,4.6,108,(812) 685-2489,http://www.wildridgervresort.com/,,Wildridge RV Resort,business,"2905 Dillard Rd, Birdseye, IN 47513, USA",Birdseye,IN,47513,,,,,,,,,(812) 685-2489,,http://www.wildridgervresort.com/,A
336a3e2d-3c1e-4165-8114-fba9edc465d5,Peaceful Waters Campground,campground,"3325 US-41, Bloomingdale, IN 47832, USA",Bloomingdale,IN,47832,Parke County,39.8164610,-87.2361980,OPERATIONAL,4.5,300,(765) 592-6458,https://www.peacefulwaterscampground.com/,,Peaceful Waters Campground,business,"3325 US-41, Bloomingdale, IN 47832, USA",Bloomingdale,IN,47832,,,,,,,,,(765) 592-6458,,https://www.peacefulwaterscampground.com/,A
71d187c9-d07a-4865-819f-8e108ec29a39,Turkey Run Canoe & Camping,campground,"870 IN-47, Bloomingdale, IN 47832, USA",Bloomingdale,IN,47832,Parke County,39.8781090,-87.2259220,OPERATIONAL,4.1,403,(765) 597-2029,https://www.turkeyruncanoeandcamping.com/,,Turkey Run Canoe & Camping,business,"870 IN-47, Bloomingdale, IN 47832, USA",Bloomingdale,IN,47832,,,,,,,,,(765) 597-2029,,https://www.turkeyruncanoeandcamping.com/,A
132a93f6-0b23-43d8-a7d7-9923c7b39b9e,Arlington Valley,rv_park,"1600 N Willis Dr, Bloomington, IN 47404, USA",Bloomington,IN,47404,Monroe County,39.1820099,-86.5439104,OPERATIONAL,3.5,289,(812) 339-5392,https://www.mhvillage.com/Communities/MobileHomePark.php?key=11762,,Arlington Valley,business,"1600 N Willis Dr, Bloomington, IN 47404, USA",Bloomington,IN,47404,,,,,,,,,(812) 339-5392,,https://www.mhvillage.com/Communities/MobileHomePark.php?key=11762,A
a50b0b95-191e-4d83-bcfe-69c481f74d65,Country Club Terrace Mobile Home Park,rv_park,"400 W Terrace Dr, Bloomington, IN 47403, USA",Bloomington,IN,47403,Monroe County,39.1280479,-86.5369567,OPERATIONAL,3.3,34,(812) 269-1105,,,Country Club Terrace Mobile Home Park,business,"400 W Terrace Dr, Bloomington, IN 47403, USA",Bloomington,IN,47403,,,,,,,,,(812) 269-1105,,,A
228a6266-0e54-461d-bbd4-8858b35ef243,E&N Mobile Home Community,rv_park,"900 N Curry Pike lot 7, Bloomington, IN 47404, USA",Bloomington,IN,47404,Monroe County,39.1755714,-86.5820239,OPERATIONAL,3.5,50,(812) 269-8842,http://openmgmt.com/e&n,,E&N Mobile Home Community,business,"900 N Curry Pike lot 7, Bloomington, IN 47404, USA",Bloomington,IN,47404,,,,,,,,,(812) 269-8842,,http://openmgmt.com/e&n,A
4ad1346a-bc91-4c91-bb91-7ebb755d1508,Garden Hill Mobile Home Park,rv_park,"4111 W Vernal Pike, Bloomington, IN 47404, USA",Bloomington,IN,47404,Monroe County,39.1771659,-86.5815505,OPERATIONAL,3.4,99,(812) 336-8004,,,Garden Hill Mobile Home Park,business,"4111 W Vernal Pike, Bloomington, IN 47404, USA",Bloomington,IN,47404,,,,,,,,,(812) 336-8004,,,A
0e8a327d-77b1-4d30-83d0-b8da6c2c63f1,Heatherwood Mobile Home Community,rv_park,"3660 S Leonard Springs Rd, Bloomington, IN 47403, USA",Bloomington,IN,47403,Monroe County,39.1270298,-86.5839611,OPERATIONAL,3.3,234,(812) 200-4042,https://docs.google.com/forms/d/1Y05t3kdzzebxdryX74ffWUjhSZbjx62srSmCLJ0L0xw/edit,,Heatherwood Mobile Home Community,business,"3660 S Leonard Springs Rd, Bloomington, IN 47403, USA",Bloomington,IN,47403,,,,,,,,,(812) 200-4042,,https://docs.google.com/forms/d/1Y05t3kdzzebxdryX74ffWUjhSZbjx62srSmCLJ0L0xw/edit,A
e62f1845-caab-4740-a57c-079c5b659d9b,Jami Lou Seasonal RV Campground,campground,"3800 State Hwy 446, Bloomington, IN 47401, USA",Bloomington,IN,47401,Monroe County,39.1233362,-86.4347305,OPERATIONAL,5.0,10,(812) 994-1662,http://jamiloucampground.com/,,Jami Lou Seasonal RV Campground,business,"3800 State Hwy 446, Bloomington, IN 47401, USA",Bloomington,IN,47401,,,,,,,,,(812) 994-1662,,http://jamiloucampground.com/,A
89c3d3d8-2b3c-4eef-a49e-c6d388e73eb0,Jellystone Park™ Lake Monroe,rv_park,"9396 S Strain Ridge Rd, Bloomington, IN 47401, USA",Bloomington,IN,47401,Monroe County,39.0259728,-86.5230524,OPERATIONAL,4.4,684,(812) 824-3322,https://jellystonelakemonroe.com/?utm_source=google&utm_medium=organic&utm_campaign=gbp_listing,,Jellystone Park™ Lake Monroe,business,"9396 S Strain Ridge Rd, Bloomington, IN 47401, USA",Bloomington,IN,47401,,,,,,,,,(812) 824-3322,,https://jellystonelakemonroe.com/?utm_source=google&utm_medium=organic&utm_campaign=gbp_listing,A
9e500919-0c4c-4aff-b225-4ef2b03229b7,Knightridge Campground,campground,"4398 State Hwy 446, Bloomington, IN 47401, USA",Bloomington,IN,47401,Monroe County,39.1134074,-86.4313621,OPERATIONAL,4.5,31,(812) 318-0050,http://www.theknightridge.com/,,Knightridge Campground,business,"4398 State Hwy 446, Bloomington, IN 47401, USA",Bloomington,IN,47401,,,,,,,,,(812) 318-0050,,http://www.theknightridge.com/,A
dc6e94f4-7486-49e2-ab2d-0a19bc525f35,Lake Monroe Village,campground,"8107 S Fairfax Rd, Bloomington, IN 47401, USA",Bloomington,IN,47401,Monroe County,39.0518442,-86.4940584,OPERATIONAL,4.3,252,(812) 287-6855,http://www.lakemonroevillage.com/,,Lake Monroe Village,business,"8107 S Fairfax Rd, Bloomington, IN 47401, USA",Bloomington,IN,47401,,,,,,,,,(812) 287-6855,,http://www.lakemonroevillage.com/,A
c3e0212d-be9b-4ac5-8c2c-4f80e1a8eac0,Lamplighter Estates Mobile,rv_park,"1700 S Curry Pike, Bloomington, IN 47403, USA",Bloomington,IN,47403,Monroe County,39.1504919,-86.5848516,OPERATIONAL,3.8,48,(812) 825-9628,,,Lamplighter Estates Mobile,business,"1700 S Curry Pike, Bloomington, IN 47403, USA",Bloomington,IN,47403,,,,,,,,,(812) 825-9628,,,A
66fb09a6-12fe-4917-b90a-8db75b88eb79,Longview Mobile Home Park,rv_park,"345 S Muller Pkwy, Bloomington, IN 47403, USA",Bloomington,IN,47403,Monroe County,39.1627930,-86.5635413,OPERATIONAL,4.0,47,(812) 955-5003,http://longviewbloomington.com/,,Longview Mobile Home Park,business,"345 S Muller Pkwy, Bloomington, IN 47403, USA",Bloomington,IN,47403,,,,,,,,,(812) 955-5003,,http://longviewbloomington.com/,A
19306fb3-fee6-4c9b-8974-8d26e6cfac91,Mackenzie Park,rv_park,"2005 S Rogers St, Bloomington, IN 47403, USA",Bloomington,IN,47403,Monroe County,39.1459379,-86.5382961,OPERATIONAL,4.0,24,(812) 336-6900,http://www.shaw-rentals.com/,,Mackenzie Park,business,"2005 S Rogers St, Bloomington, IN 47403, USA",Bloomington,IN,47403,,,,,,,,,(812) 336-6900,,http://www.shaw-rentals.com/,A
37aa4eb1-918f-477a-9163-6886f04b6697,Monroe Causeway Campground,campground,"7407 State Hwy 446, Bloomington, IN 47401, USA",Bloomington,IN,47401,Monroe County,39.0645469,-86.4089134,OPERATIONAL,4.7,48,(812) 837-9966,https://monroecausewaycamp.com/,,Monroe Causeway Campground,business,"7407 State Hwy 446, Bloomington, IN 47401, USA",Bloomington,IN,47401,,,,,,,,,(812) 837-9966,,https://monroecausewaycamp.com/,A
07dd44d2-46db-4c22-bcea-587c238b6f30,Paynetown Campground,campground,"State Hwy 446, Bloomington, IN 47401, USA",Bloomington,IN,47401,Monroe County,39.0816734,-86.4358790,OPERATIONAL,4.6,606,(866) 622-6746,https://indianastateparks.reserveamerica.com/camping/monroe-lake/r/campgroundDetails.do?contractCode=IN&parkId=570050,,Paynetown Campground,business,"State Hwy 446, Bloomington, IN 47401, USA",Bloomington,IN,47401,,,,,,,,,(866) 622-6746,,https://indianastateparks.reserveamerica.com/camping/monroe-lake/r/campgroundDetails.do?contractCode=IN&parkId=570050,A
ac8ed8ae-5668-4a12-8c96-ac32b660009d,Scenic View Seasonal Campground,campground,"4592 State Hwy 446, Bloomington, IN 47401, USA",Bloomington,IN,47401,Monroe County,39.1075730,-86.4317017,OPERATIONAL,4.0,4,(812) 837-9496,https://scenicviewbloomington.com/rv-campground/,,Scenic View Seasonal Campground,business,"4592 State Hwy 446, Bloomington, IN 47401, USA",Bloomington,IN,47401,,,,,,,,,(812) 837-9496,,https://scenicviewbloomington.com/rv-campground/,A
2a76fe4d-d2c1-4958-97f2-8caed1f1a7ad,Shady Acres,rv_park,"708 S Cory Ln Lot 22, Bloomington, IN 47403, USA",Bloomington,IN,47403,Monroe County,39.1596166,-86.5621959,OPERATIONAL,3.8,13,,,,Shady Acres,business,"708 S Cory Ln Lot 22, Bloomington, IN 47403, USA",Bloomington,IN,47403,,,,,,,,,,,,B
41bd68df-80f5-45f0-958c-931ac9d6d621,South Rogers Mobile Home Community,rv_park,"2304 S Rogers St, Bloomington, IN 47403, USA",Bloomington,IN,47403,Monroe County,39.1423149,-86.5410156,OPERATIONAL,4.0,20,(812) 252-2202,https://sgcommunities.com/community/south-rogers/,,South Rogers Mobile Home Community,business,"2304 S Rogers St, Bloomington, IN 47403, USA",Bloomington,IN,47403,,,,,,,,,(812) 252-2202,,https://sgcommunities.com/community/south-rogers/,A
e8fbe214-b5b1-499c-9e6b-04c7fc3b1fbb,Southcrest Estates,rv_park,"315 W Gordon Pike, Bloomington, IN 47403, USA",Bloomington,IN,47403,Monroe County,39.1207342,-86.5354574,OPERATIONAL,3.4,184,(812) 226-9981,https://rootsmg.com/community/southcrest_estates_bloomington_in,,Southcrest Estates,business,"315 W Gordon Pike, Bloomington, IN 47403, USA",Bloomington,IN,47403,,,,,,,,,(812) 226-9981,,https://rootsmg.com/community/southcrest_estates_bloomington_in,A
e88947a8-5ffd-4805-8755-7d1f5cc34a55,Bluffton / Fort Wayne South KOA Journey,rv_park,"1625 W Lancaster St, Bluffton, IN 46714, USA",Bluffton,IN,46714,Wells County,40.7461727,-85.1934997,OPERATIONAL,4.1,332,(260) 824-0127,https://koa.com/campgrounds/bluffton/?utm_source=google&utm_medium=organic&utm_campaign=gbp,,Bluffton / Fort Wayne South KOA Journey,business,"1625 W Lancaster St, Bluffton, IN 46714, USA",Bluffton,IN,46714,,,,,,,,,(260) 824-0127,,https://koa.com/campgrounds/bluffton/?utm_source=google&utm_medium=organic&utm_campaign=gbp,A
2705f5ae-b179-4ecd-bb74-6fe466ca1461,Bluffton Woods Manufactured Home Community,rv_park,"404 Eastmoor Dr, Bluffton, IN 46714, USA",Bluffton,IN,46714,Wells County,40.7431221,-85.1586837,OPERATIONAL,3.6,99,(260) 824-3874,https://www.bayshorehomesales.com/communities/blufftonwoods?utm_campaign=WebsiteURL&utm_medium=organic&utm_source=GMB,,Bluffton Woods Manufactured Home Community,business,"404 Eastmoor Dr, Bluffton, IN 46714, USA",Bluffton,IN,46714,,,,,,,,,(260) 824-3874,,https://www.bayshorehomesales.com/communities/blufftonwoods?utm_campaign=WebsiteURL&utm_medium=organic&utm_source=GMB,A
6019f4f9-415f-4fe2-95ca-7bf266a48199,Creekside (Prev Mendenhalls) RV/Mobile Park,rv_park,"3427 IN-124, Bluffton, IN 46714, USA",Bluffton,IN,46714,Wells County,40.7427635,-85.1574606,OPERATIONAL,4.0,24,(260) 824-5365,,,Creekside (Prev Mendenhalls) RV/Mobile Park,business,"3427 IN-124, Bluffton, IN 46714, USA",Bluffton,IN,46714,,,,,,,,,(260) 824-5365,,,A
e13d2b16-ffbd-4da6-a3f2-df60407eb98a,Maple Grove Estates,rv_park,"1056 Crescent Dr, Bluffton, IN 46714, USA",Bluffton,IN,46714,Wells County,40.7303338,-85.1822667,OPERATIONAL,3.8,24,(260) 824-0078,,,Maple Grove Estates,business,"1056 Crescent Dr, Bluffton, IN 46714, USA",Bluffton,IN,46714,,,,,,,,,(260) 824-0078,,,A
baec6bae-32a5-47f0-b14b-2843c3776376,Ouabache State Park Campground,campground,"Bluffton, IN 46714, USA",Bluffton,IN,46714,Wells County,40.7191391,-85.0987545,OPERATIONAL,4.6,14,(260) 824-0926,https://www.in.gov/dnr/state-parks/parks-lakes/ouabache-state-park/?utm_source=Web&utm_medium=&utm_campaign=&utm_term=&utm_content=,,Ouabache State Park Campground,business,"Bluffton, IN 46714, USA",Bluffton,IN,46714,,,,,,,,,(260) 824-0926,,https://www.in.gov/dnr/state-parks/parks-lakes/ouabache-state-park/?utm_source=Web&utm_medium=&utm_campaign=&utm_term=&utm_content=,A
f892dd79-23d0-480d-bb67-317d1919c880,Walnut Grove Campground,campground,"7440 W 400 N, Boggstown, IN 46110, USA",Boggstown,IN,46110,Shelby County,39.5870680,-85.9220770,OPERATIONAL,4.1,116,,http://walnutgrovecg.com/,,Walnut Grove Campground,business,"7440 W 400 N, Boggstown, IN 46110, USA",Boggstown,IN,46110,,,,,,,,,,,http://walnutgrovecg.com/,B
6bc07e34-b1a8-4d77-a6e7-b9cede673083,Deam Lake Family Campground,campground,"Deam Lake Family Campground, Borden, IN 47106, USA",Borden,IN,47106,Clark County,38.4739225,-85.8638826,OPERATIONAL,4.4,195,,,,Deam Lake Family Campground,business,"Deam Lake Family Campground, Borden, IN 47106, USA",Borden,IN,47106,,,,,,,,,,,,B
2ea54b18-0d3e-4c00-8917-95421acfa0e0,Deam Lake Horse Campground,campground,"Deam Lake Horse Campground, Borden, IN 47106, USA",Borden,IN,47106,Clark County,38.4742181,-85.8605298,OPERATIONAL,4.4,35,,,,Deam Lake Horse Campground,business,"Deam Lake Horse Campground, Borden, IN 47106, USA",Borden,IN,47106,,,,,,,,,,,,B
182847f5-1ca9-42d0-8a81-0c540a7ae92b,Deam Lake State Recreation Area,campground,"1217 Deam Lake Rd, Borden, IN 47106, USA",Borden,IN,47106,Clark County,38.4667354,-85.8619667,OPERATIONAL,4.4,1912,(812) 246-5421,http://www.in.gov/dnr/forestry/4825.htm,,Deam Lake State Recreation Area,business,"1217 Deam Lake Rd, Borden, IN 47106, USA",Borden,IN,47106,,,,,,,,,(812) 246-5421,,http://www.in.gov/dnr/forestry/4825.htm,A
c9713464-402f-47f7-a068-0840b8c7a835,Fallen Rock RV Parke & Campground,campground,"8816 S Fallen Rock Rd, Brazil, IN 47834, USA",Brazil,IN,47834,Parke County,39.6381480,-87.0588320,OPERATIONAL,4.6,66,(765) 672-4301,http://fallenrockrvparke.com/,,Fallen Rock RV Parke & Campground,business,"8816 S Fallen Rock Rd, Brazil, IN 47834, USA",Brazil,IN,47834,,,,,,,,,(765) 672-4301,,http://fallenrockrvparke.com/,A
5549ad1a-71af-4785-8ae3-2639a9d67116,"Happy Campers Campground, Inc.",campground,"7233 N County Rd 500 E, Brazil, IN 47834, USA",Brazil,IN,47834,Clay County,39.4923028,-87.0177522,OPERATIONAL,4.7,47,(812) 239-6263,https://www.hipcamp.com/en-US/land/indiana-happy-campers-campground-r57hy0kq?utm_source=google_maps&utm_campaign=suggest_website,,"Happy Campers Campground, Inc.",business,"7233 N County Rd 500 E, Brazil, IN 47834, USA",Brazil,IN,47834,,,,,,,,,(812) 239-6263,,https://www.hipcamp.com/en-US/land/indiana-happy-campers-campground-r57hy0kq?utm_source=google_maps&utm_campaign=suggest_website,A
d119bf08-8c79-417e-afbd-64c6eea71ba7,Pla-Mor Campground,campground,"2162 US-6, Bremen, IN 46506, USA",Bremen,IN,46506,Marshall County,41.4553531,-86.1010936,OPERATIONAL,4.3,401,(574) 546-3665,https://pla-mor.net/index.html,,Pla-Mor Campground,business,"2162 US-6, Bremen, IN 46506, USA",Bremen,IN,46506,,,,,,,,,(574) 546-3665,,https://pla-mor.net/index.html,A
3e34527a-296c-4fb2-a9da-4c22e0780b6a,Rupert's Resort Campground,campground,"3408 W Shore Dr, Bremen, IN 46506, USA",Bremen,IN,46506,Marshall County,41.4299543,-86.2374123,OPERATIONAL,3.9,129,(574) 276-7595,http://rupertsresortcampground.com/,,Rupert's Resort Campground,business,"3408 W Shore Dr, Bremen, IN 46506, USA",Bremen,IN,46506,,,,,,,,,(574) 276-7595,,http://rupertsresortcampground.com/,A
18b0cc65-2912-4f49-b837-9e74f8657617,Willow Rose RV Park,campground,"3203 E Allen St, Bridgeton, IN 47836, USA",Bridgeton,IN,47836,Parke County,39.6474093,-87.1748514,OPERATIONAL,4.4,14,(812) 814-9951,http://www.willowroseproperties.com/rvpark_index.htm,,Willow Rose RV Park,business,"3203 E Allen St, Bridgeton, IN 47836, USA",Bridgeton,IN,47836,,,,,,,,,(812) 814-9951,,http://www.willowroseproperties.com/rvpark_index.htm,A
91cc82f0-42d6-4d29-91b1-0b4df725f0f2,Eby's Pines RV Park & Campground,rv_park,"14588 IN-120, Bristol, IN 46507, USA",Bristol,IN,46507,Elkhart County,41.7232088,-85.7485187,OPERATIONAL,4.1,599,(574) 848-4583,http://www.ebyspines.com/,,Eby's Pines RV Park & Campground,business,"14588 IN-120, Bristol, IN 46507, USA",Bristol,IN,46507,,,,,,,,,(574) 848-4583,,http://www.ebyspines.com/,A
d44a71b6-8926-4db3-a188-51763fbc7f16,Timberbrook Manufactured Home Community,rv_park,"54686 Co Rd 19, Bristol, IN 46507, USA",Bristol,IN,46507,Elkhart County,41.7010301,-85.8699178,OPERATIONAL,3.0,275,(574) 848-5552,,,Timberbrook Manufactured Home Community,business,"54686 Co Rd 19, Bristol, IN 46507, USA",Bristol,IN,46507,,,,,,,,,(574) 848-5552,,,A
bfe28f63-2592-4ec2-88b2-4cd46f07810a,Indian-Celina Lakes Recreation Area,campground,"20230 St Croix Pl, Bristow, IN 47515, USA",Bristow,IN,47515,Perry County,38.1967060,-86.6093319,OPERATIONAL,4.6,97,(877) 444-6777,https://www.fs.usda.gov/r09/hoosier/recreation/indian-celina-lakes-recreation-area,,Indian-Celina Lakes Recreation Area,business,"20230 St Croix Pl, Bristow, IN 47515, USA",Bristow,IN,47515,,,,,,,,,(877) 444-6777,,https://www.fs.usda.gov/r09/hoosier/recreation/indian-celina-lakes-recreation-area,A
a36b9422-171f-4e3c-98ba-97ba2eab625e,Indian-Celina Lakes South Slope Campground,campground,"Bristow, IN 47515, USA",Bristow,IN,47515,Perry County,38.1931610,-86.6078119,OPERATIONAL,4.6,70,(812) 843-4880,https://www.fs.usda.gov/recarea/hoosier/recreation/recarea/?recid=41486,,Indian-Celina Lakes South Slope Campground,business,"Bristow, IN 47515, USA",Bristow,IN,47515,,,,,,,,,(812) 843-4880,,https://www.fs.usda.gov/recarea/hoosier/recreation/recarea/?recid=41486,A
e4705e1a-aee3-459f-94b3-8f6e32dffa35,Franklin County Parks & Campground,campground,"7178 Blue Creek Rd, Brookville, IN 47012, USA",Brookville,IN,47012,Franklin County,39.4040917,-85.0164738,OPERATIONAL,4.7,118,(765) 647-4422,http://franklincountypark.com/,,Franklin County Parks & Campground,business,"7178 Blue Creek Rd, Brookville, IN 47012, USA",Brookville,IN,47012,,,,,,,,,(765) 647-4422,,http://franklincountypark.com/,A
8088b6c1-911a-47b0-9352-8c46136f75dc,Morgan's Outdoor Adventures,campground,"7040 Whitewater River Ln, Brookville, IN 47012, USA",Brookville,IN,47012,Franklin County,39.4126186,-85.0154315,OPERATIONAL,4.5,522,(765) 647-4904,https://www.morganscanoe.com/brookville/,,Morgan's Outdoor Adventures,business,"7040 Whitewater River Ln, Brookville, IN 47012, USA",Brookville,IN,47012,,,,,,,,,(765) 647-4904,,https://www.morganscanoe.com/brookville/,A
40f5c657-ae0e-42c1-980c-d1ea550320a9,Mounds State Recreation Area,campground,"14108 IN-101, Brookville, IN 47012, USA",Brookville,IN,47012,Franklin County,39.4948532,-84.9632292,OPERATIONAL,4.5,1634,(765) 647-2657,https://www.in.gov/dnr/state-parks/parks-lakes/brookville-lake/,,Mounds State Recreation Area,business,"14108 IN-101, Brookville, IN 47012, USA",Brookville,IN,47012,,,,,,,,,(765) 647-2657,,https://www.in.gov/dnr/state-parks/parks-lakes/brookville-lake/,A
e903f09f-a4f1-4987-9fa0-5d3cc66a0f14,Hunter Woods Manufactured Home Community,rv_park,"9900 Sackett Dr, Brownsburg, IN 46112, USA",Brownsburg,IN,46112,Hendricks County,39.8216323,-86.3484878,OPERATIONAL,3.3,49,(317) 852-4719,http://www.hunterwoodsmhc.com/,,Hunter Woods Manufactured Home Community,business,"9900 Sackett Dr, Brownsburg, IN 46112, USA",Brownsburg,IN,46112,,,,,,,,,(317) 852-4719,,http://www.hunterwoodsmhc.com/,A
a376e221-5230-471e-8f5e-d439d03d48a6,Hillview Mobile Home Court,rv_park,"420 S Asher St, Brownstown, IN 47220, USA",Brownstown,IN,47220,Jackson County,38.8739318,-86.0468673,OPERATIONAL,3.6,37,(812) 358-3425,,,Hillview Mobile Home Court,business,"420 S Asher St, Brownstown, IN 47220, USA",Brownstown,IN,47220,,,,,,,,,(812) 358-3425,,,A
fcedfec4-44da-426c-86e0-7b4dee2c04d0,Bruceville Rod & Gun Club,campground,"6015 N Rod and Gun Club, Bruceville, IN 47516, USA",Bruceville,IN,47516,Knox County,38.7663440,-87.4006467,OPERATIONAL,4.8,32,(812) 324-9284,https://www.facebook.com/BrucevilleRodAndGunClub?mibextid=LQQJ4d,,Bruceville Rod & Gun Club,business,"6015 N Rod and Gun Club, Bruceville, IN 47516, USA",Bruceville,IN,47516,,,,,,,,,(812) 324-9284,,https://www.facebook.com/BrucevilleRodAndGunClub?mibextid=LQQJ4d,A
3129d7a3-f09e-450f-9b67-1b9800637b2c,Tall Oaks Family Campground,campground,"8040 N Tall Oaks Ct, Buffalo, IN 47925, USA",Buffalo,IN,47925,White County,40.8985085,-86.7240628,OPERATIONAL,4.2,50,(574) 278-7181,https://www.talloaksin.com/,,Tall Oaks Family Campground,business,"8040 N Tall Oaks Ct, Buffalo, IN 47925, USA",Buffalo,IN,47925,,,,,,,,,(574) 278-7181,,https://www.talloaksin.com/,A
6569842c-43b6-4ca4-bf65-3f4f5fe85b92,Wood's Campground,campground,"10532 N Carthage Pike, Carthage, IN 46115, USA",Carthage,IN,46115,Rush County,39.7640254,-85.5425146,OPERATIONAL,4.3,100,(765) 565-6718,,,Wood's Campground,business,"10532 N Carthage Pike, Carthage, IN 46115, USA",Carthage,IN,46115,,,,,,,,,(765) 565-6718,,,A
b0ae44c1-44a9-4179-b061-1577cf4a9cce,Cotton Wood Camp Grounds,campground,"6271 Campground, Cedar Grove, IN 47016, USA",Cedar Grove,IN,47016,Franklin County,39.3510747,-84.9212044,OPERATIONAL,4.6,61,(317) 665-3875,,,Cotton Wood Camp Grounds,business,"6271 Campground, Cedar Grove, IN 47016, USA",Cedar Grove,IN,47016,,,,,,,,,(317) 665-3875,,,A
5ba97991-5843-4ca5-af6b-5c88414da57b,Cedar Lake Ministries RV Park,rv_park,"8816 W 137th Ave, Cedar Lake, IN 46303, USA",Cedar Lake,IN,46303,Lake County,41.3710235,-87.4433500,OPERATIONAL,4.3,134,(219) 374-5941,https://www.cedarlakeministries.org/rv-park/,,Cedar Lake Ministries RV Park,business,"8816 W 137th Ave, Cedar Lake, IN 46303, USA",Cedar Lake,IN,46303,,,,,,,,,(219) 374-5941,,https://www.cedarlakeministries.org/rv-park/,A
29dbec69-b377-41aa-a9c4-75b01cfa5057,Cedar Lake Mobile Home Community,rv_park,"Cedar Lake, IN 46303, USA",Cedar Lake,IN,46303,Lake County,41.3756968,-87.4430444,OPERATIONAL,3.8,18,(219) 225-2105,https://cedarlakemhc.com/contact/,,Cedar Lake Mobile Home Community,business,"Cedar Lake, IN 46303, USA",Cedar Lake,IN,46303,,,,,,,,,(219) 225-2105,,https://cedarlakemhc.com/contact/,A
77b5beeb-958c-438c-ba6d-003023fd21f2,Camp Krietenstein,campground,"6445 E County Rd 575 N, Center Point, IN 47840, USA",Center Point,IN,47840,Putnam County,39.4745293,-86.9836333,OPERATIONAL,4.7,98,(812) 236-5016,http://campkrietenstein.org/,,Camp Krietenstein,business,"6445 E County Rd 575 N, Center Point, IN 47840, USA",Center Point,IN,47840,,,,,,,,,(812) 236-5016,,http://campkrietenstein.org/,A
2717b81f-fba9-4daa-8866-b351c45fcc18,Pinecrest Pointe Mobile Home Park,rv_park,"833 Tanglewood Dr, Chandler, IN 47610, USA",Chandler,IN,47610,Warrick County,38.0457802,-87.3548695,OPERATIONAL,3.6,69,(812) 925-3355,https://yougotithomes.com/community/pinecrest-pointe/,,Pinecrest Pointe Mobile Home Park,business,"833 Tanglewood Dr, Chandler, IN 47610, USA",Chandler,IN,47610,,,,,,,,,(812) 925-3355,,https://yougotithomes.com/community/pinecrest-pointe/,A
4e373b40-cfc3-4ad9-a2c3-33bf29905f23,Summit View Pointe Mobile Home Park,rv_park,"500 Navajo Trce, Chandler, IN 47610, USA",Chandler,IN,47610,Warrick County,38.0314598,-87.3664550,OPERATIONAL,3.4,16,(812) 870-0136,https://yougotithomes.com/summit-view-pointe/,,Summit View Pointe Mobile Home Park,business,"500 Navajo Trce, Chandler, IN 47610, USA",Chandler,IN,47610,,,,,,,,,(812) 870-0136,,https://yougotithomes.com/summit-view-pointe/,A
4967a12c-18c0-439f-9f96-0fa4cacd405e,Campground Charlestown State Park,campground,"Charlestown, IN 47111, USA",Charlestown,IN,47111,Clark County,38.4322337,-85.6349295,OPERATIONAL,4.5,107,(812) 256-5600,https://www.in.gov/dnr/state-parks/parks-lakes/charlestown-state-park/,,Campground Charlestown State Park,business,"Charlestown, IN 47111, USA",Charlestown,IN,47111,,,,,,,,,(812) 256-5600,,https://www.in.gov/dnr/state-parks/parks-lakes/charlestown-state-park/,A
efc6e5f6-eab2-4199-ac6e-6bb006ffa976,Tunnel Mill Reservation,campground,"Charlestown, IN 47111, USA",Charlestown,IN,47111,Clark County,38.4839058,-85.6211231,OPERATIONAL,4.7,108,(877) 334-2674,https://lhcbsa.org/tunnel-mill-scout-reservation/,,Tunnel Mill Reservation,business,"Charlestown, IN 47111, USA",Charlestown,IN,47111,,,,,,,,,(877) 334-2674,,https://lhcbsa.org/tunnel-mill-scout-reservation/,A
66ba4eba-65dc-47f9-a430-fc4a67736680,"Royal Oaks MHP, LLC",rv_park,"4801 County Rd 67, Chesterfield, IN 46017, USA",Chesterfield,IN,46017,Madison County,40.1104814,-85.5807199,OPERATIONAL,4.3,47,(765) 378-9120,,,"Royal Oaks MHP, LLC",business,"4801 County Rd 67, Chesterfield, IN 46017, USA",Chesterfield,IN,46017,,,,,,,,,(765) 378-9120,,,A
2430779d-d343-4e2f-a4b3-14d333153eb8,Dunewood Campground,campground,"1 Golf Wood Rd, Chesterton, IN 46304, USA",Chesterton,IN,46304,Porter County,41.6720808,-86.9849727,OPERATIONAL,4.5,557,(219) 395-1882,https://www.nps.gov/indu/planyourvisit/campgrounds.htm,,Dunewood Campground,business,"1 Golf Wood Rd, Chesterton, IN 46304, USA",Chesterton,IN,46304,,,,,,,,,(219) 395-1882,,https://www.nps.gov/indu/planyourvisit/campgrounds.htm,A
f0571e01-80e3-4a9d-b6c1-8f2403bbf17c,Forest Oaks Mobile Home Park,rv_park,"1 Canterbury Cir, Chesterton, IN 46304, USA",Chesterton,IN,46304,Porter County,41.5654034,-87.0973451,OPERATIONAL,3.6,111,(219) 926-5867,https://cairncommunities.com/community/forest-oaks-mhc/,,Forest Oaks Mobile Home Park,business,"1 Canterbury Cir, Chesterton, IN 46304, USA",Chesterton,IN,46304,,,,,,,,,(219) 926-5867,,https://cairncommunities.com/community/forest-oaks-mhc/,A
689ab2dc-22b0-476f-9779-4e6972f8501e,Indiana Dunes State Park Campground Showers and Bathrooms,campground,"Electric Campground, 1600 N 25 E, Chesterton, IN 46304, USA",Chesterton,IN,46304,Porter County,41.6576460,-87.0553794,OPERATIONAL,4.5,157,(219) 926-1952,https://indianastateparks.reserveamerica.com/,,Indiana Dunes State Park Campground Showers and Bathrooms,business,"Electric Campground, 1600 N 25 E, Chesterton, IN 46304, USA",Chesterton,IN,46304,,,,,,,,,(219) 926-1952,,https://indianastateparks.reserveamerica.com/,A
f4ea3cee-9fac-4696-ac70-b755e34577cb,Sand Creek Campground,campground,"1000N N 350 E, Chesterton, IN 46304, USA",Chesterton,IN,46304,Porter County,41.5797301,-87.0022825,OPERATIONAL,3.8,336,(219) 926-7482,https://sandcreekcamp.com/,,Sand Creek Campground,business,"1000N N 350 E, Chesterton, IN 46304, USA",Chesterton,IN,46304,,,,,,,,,(219) 926-7482,,https://sandcreekcamp.com/,A
c53da7c6-1dc4-4bcb-aeb0-76df0c55351d,Lake Lincoln Electric Campground,campground,"Lake Lincoln Campground, Chrisney, IN 47611, USA",Chrisney,IN,47611,Spencer County,38.1058394,-86.9922522,OPERATIONAL,4.6,36,,,,Lake Lincoln Electric Campground,business,"Lake Lincoln Campground, Chrisney, IN 47611, USA",Chrisney,IN,47611,,,,,,,,,,,,B
f07caeb6-66e8-4db8-8fcf-bcfe8ffbcf57,Blue Lake Campground,campground,"5453 N Blue Lake Rd, Churubusco, IN 46723, USA",Churubusco,IN,46723,Whitley County,41.2438576,-85.3509213,OPERATIONAL,3.6,205,(260) 693-2265,https://www.bluelakeindiana.com/,,Blue Lake Campground,business,"5453 N Blue Lake Rd, Churubusco, IN 46723, USA",Churubusco,IN,46723,,,,,,,,,(260) 693-2265,,https://www.bluelakeindiana.com/,A
b887bddd-9f82-4d30-b398-07b3a7d34c49,Blue Ridge Estates,rv_park,"6560 N 650 E, Churubusco, IN 46723, USA",Churubusco,IN,46723,Whitley County,41.2597086,-85.3658554,OPERATIONAL,3.5,28,(260) 508-3156,https://www.blueridgeestatesmhc.com/,,Blue Ridge Estates,business,"6560 N 650 E, Churubusco, IN 46723, USA",Churubusco,IN,46723,,,,,,,,,(260) 508-3156,,https://www.blueridgeestatesmhc.com/,A
3778c8b0-23ef-42d6-8884-238576ae9231,Davis Lakeside Campground,rv_park,"7209 E Harrold Rd, Churubusco, IN 46723, USA",Churubusco,IN,46723,Whitley County,41.2374303,-85.3544489,OPERATIONAL,4.5,61,(260) 602-9414,,,Davis Lakeside Campground,business,"7209 E Harrold Rd, Churubusco, IN 46723, USA",Churubusco,IN,46723,,,,,,,,,(260) 602-9414,,,A
021a4642-a292-425a-9ad3-5966b52185bc,Edgewater Crossing Manufactured Home Community,rv_park,"1020 Seaport Dr, Cicero, IN 46034, USA",Cicero,IN,46034,Hamilton County,40.1055610,-86.0318501,OPERATIONAL,4.1,21,(317) 649-5917,https://www.americanmobilehomecommunities.com/edgewater-crossing,,Edgewater Crossing Manufactured Home Community,business,"1020 Seaport Dr, Cicero, IN 46034, USA",Cicero,IN,46034,,,,,,,,,(317) 649-5917,,https://www.americanmobilehomecommunities.com/edgewater-crossing,A
ec488858-9f64-46f5-be9f-c18919f58792,White River Campground,rv_park,"11299 E 234th St, Cicero, IN 46034, USA",Cicero,IN,46034,Hamilton County,40.1285505,-85.9680467,OPERATIONAL,4.6,557,(317) 770-4430,https://www.hamiltoncounty.in.gov/1942/White-River-Campground,,White River Campground,business,"11299 E 234th St, Cicero, IN 46034, USA",Cicero,IN,46034,,,,,,,,,(317) 770-4430,,https://www.hamiltoncounty.in.gov/1942/White-River-Campground,A
29f392a1-d2e7-40f4-9bd8-39516c1bc810,Louisville North Campground,rv_park,"900 Marriott Dr, Clarksville, IN 47129, USA",Clarksville,IN,47129,Clark County,38.2790723,-85.7543825,OPERATIONAL,3.7,497,(812) 282-4474,http://louisvillenorthcampground.com/,,Louisville North Campground,business,"900 Marriott Dr, Clarksville, IN 47129, USA",Clarksville,IN,47129,,,,,,,,,(812) 282-4474,,http://louisvillenorthcampground.com/,A
adcc85a0-9971-44c0-abc5-863474be0dd8,Silver Creek RV Park,rv_park,"2411 Addmore Ln, Clarksville, IN 47129, USA",Clarksville,IN,47129,Clark County,38.3418635,-85.7615932,OPERATIONAL,4.1,204,(812) 283-4321,https://silvercreekrvparkin.com/,,Silver Creek RV Park,business,"2411 Addmore Ln, Clarksville, IN 47129, USA",Clarksville,IN,47129,,,,,,,,,(812) 283-4321,,https://silvercreekrvparkin.com/,A
bfc6a5df-d488-49b7-bbb0-0233884a207a,Silver Lakes Pointe Mobile Home Park,rv_park,"5935 US-31, Clarksville, IN 47129, USA",Clarksville,IN,47129,Clark County,38.3505151,-85.7503288,OPERATIONAL,3.6,195,(812) 282-6667,https://yougotithomes.com/community/silver-lakes-pointe/,,Silver Lakes Pointe Mobile Home Park,business,"5935 US-31, Clarksville, IN 47129, USA",Clarksville,IN,47129,,,,,,,,,(812) 282-6667,,https://yougotithomes.com/community/silver-lakes-pointe/,A
e55d4cdd-dbb8-4b5a-8650-11cb79064298,Wellington Green,rv_park,"1350 Progress Way, Clarksville, IN 47129, USA",Clarksville,IN,47129,Clark County,38.3347283,-85.7620098,OPERATIONAL,3.9,246,(812) 288-6095,https://liveatwellingtongreen.com/,,Wellington Green,business,"1350 Progress Way, Clarksville, IN 47129, USA",Clarksville,IN,47129,,,,,,,,,(812) 288-6095,,https://liveatwellingtongreen.com/,A
d96fa3e7-7d9c-4c82-8ffb-f28efa9cb3f1,Wabash Park Campground,campground,"304 E County Rd 650 S, Clay City, IN 47841, USA",Clay City,IN,47841,Clay County,39.2906880,-87.1045368,OPERATIONAL,4.9,66,(800) 704-3945,https://wabashparkcamp.org/,,Wabash Park Campground,business,"304 E County Rd 650 S, Clay City, IN 47841, USA",Clay City,IN,47841,,,,,,,,,(800) 704-3945,,https://wabashparkcamp.org/,A
9db5aa0d-e2da-4abd-a80c-def45828672a,Clermont Lions Club,rv_park,"3201 Tansel Rd, Clermont, IN 46234, USA",Clermont,IN,46234,Marion County,39.8111205,-86.3199324,OPERATIONAL,4.6,135,(463) 298-8789,https://clermontlionsclub.com/,,Clermont Lions Club,business,"3201 Tansel Rd, Clermont, IN 46234, USA",Clermont,IN,46234,,,,,,,,,(463) 298-8789,,https://clermontlionsclub.com/,A
cde1590d-5bfc-4e6f-9ced-f3dabb1622fa,Thousand Trails Horseshoe Lakes,rv_park,"12962 Horseshoe Ln, Clinton, IN 47842, USA",Clinton,IN,47842,Vermillion County,39.6953244,-87.5054699,OPERATIONAL,3.7,78,(765) 832-2487,https://thousandtrails.com/indiana/horseshoe-lakes-rv-campground/?utm_source=yext&utm_medium=directory&utm_campaign=Yext%20Directory%20Listing,,Thousand Trails Horseshoe Lakes,business,"12962 Horseshoe Ln, Clinton, IN 47842, USA",Clinton,IN,47842,,,,,,,,,(765) 832-2487,,https://thousandtrails.com/indiana/horseshoe-lakes-rv-campground/?utm_source=yext&utm_medium=directory&utm_campaign=Yext%20Directory%20Listing,A
bc7d639e-2fa3-4072-865b-00707de6ae1e,Blackhawk 2 Campground,campground,"2120 W County Rd 1050 S, Cloverdale, IN 46120, USA",Cloverdale,IN,46120,Putnam County,39.5070090,-86.8900500,OPERATIONAL,4.9,15,(765) 795-4795,https://www.blackhawkcampground2.com/,,Blackhawk 2 Campground,business,"2120 W County Rd 1050 S, Cloverdale, IN 46120, USA",Cloverdale,IN,46120,,,,,,,,,(765) 795-4795,,https://www.blackhawkcampground2.com/,A
ed3d7968-3a22-4fdf-ae39-b09d3aa71120,Cloverdale / Indianapolis West KOA Journey,campground,"2789 E County Rd 800 S, Cloverdale, IN 46120, USA",Cloverdale,IN,46120,Putnam County,39.5457426,-86.7989488,OPERATIONAL,3.7,188,(765) 795-3294,https://koa.com/campgrounds/indianapolis-west/,,Cloverdale / Indianapolis West KOA Journey,business,"2789 E County Rd 800 S, Cloverdale, IN 46120, USA",Cloverdale,IN,46120,,,,,,,,,(765) 795-3294,,https://koa.com/campgrounds/indianapolis-west/,A
6a9602a9-e788-4882-92eb-471036b6cb7c,Dogwood Springs Campground,campground,"8105 IN-243, Cloverdale, IN 46120, USA",Cloverdale,IN,46120,Putnam County,39.5441189,-86.8722962,OPERATIONAL,4.4,22,(765) 653-2461,http://dogwoodsprings.org/,,Dogwood Springs Campground,business,"8105 IN-243, Cloverdale, IN 46120, USA",Cloverdale,IN,46120,,,,,,,,,(765) 653-2461,,http://dogwoodsprings.org/,A
952c08bf-b384-4dd3-9ab7-821c2ab7ba50,Lieber State Recreation Area,,"1317 W Lieber Rd, Cloverdale, IN 46120, USA",Cloverdale,IN,46120,,39.4777000,-86.8799462,OPERATIONAL,4.6,1490,(765) 276-0194,https://on.in.gov/liebersra,,Lieber State Recreation Area,business,"1317 W Lieber Rd, Cloverdale, IN 46120, USA",Cloverdale,IN,46120,,,,,,,,,(765) 276-0194,,https://on.in.gov/liebersra,A
28038fba-4629-4757-899d-a22a40239684,Misty Morning Campground,campground,"12376 Campground Rd, Cloverdale, IN 46120, USA",Cloverdale,IN,46120,Owen County,39.4700880,-86.8627466,OPERATIONAL,4.0,92,(765) 795-5671,http://mmcampground.com/,,Misty Morning Campground,business,"12376 Campground Rd, Cloverdale, IN 46120, USA",Cloverdale,IN,46120,,,,,,,,,(765) 795-5671,,http://mmcampground.com/,A
f53f1188-e457-4c1b-af3d-9ff9a9ec4a72,Poplar Grove Campground,campground,"Cloverdale, IN 46120, USA",Cloverdale,IN,46120,Putnam County,39.4840785,-86.8805945,OPERATIONAL,4.8,11,,https://www.in.gov/dnr/state-parks/parks-lakes/cagles-mill-lake-lieber-and-cataract-falls-sra/,,Poplar Grove Campground,business,"Cloverdale, IN 46120, USA",Cloverdale,IN,46120,,,,,,,,,,,https://www.in.gov/dnr/state-parks/parks-lakes/cagles-mill-lake-lieber-and-cataract-falls-sra/,B
bba5cbff-48ea-4c28-ad5a-e1f88aa6fa35,Sunny Acres Campground,campground,"Cloverdale, IN 46120, USA",Cloverdale,IN,46120,Putnam County,39.4839220,-86.8852823,OPERATIONAL,4.1,9,,,,Sunny Acres Campground,business,"Cloverdale, IN 46120, USA",Cloverdale,IN,46120,,,,,,,,,,,,B
dfa97bcf-2d39-4d21-97c4-f503984c07d1,Broadview Lake Campground,campground,"4850 S Broadview Rd, Colfax, IN 46035, USA",Colfax,IN,46035,Clinton County,40.2162010,-86.6636580,OPERATIONAL,4.2,115,(765) 324-2622,https://www.broadviewcampground.com/,,Broadview Lake Campground,business,"4850 S Broadview Rd, Colfax, IN 46035, USA",Colfax,IN,46035,,,,,,,,,(765) 324-2622,,https://www.broadviewcampground.com/,A
edc95a53-9b2f-4c01-b0a6-51207b89ac8c,Countryside Mobile Home Park,rv_park,"1407 northlanecourt, Columbia City, IN 46725, USA",Columbia City,IN,46725,Whitley County,41.1701671,-85.5063017,OPERATIONAL,3.6,32,(260) 244-3003,,,Countryside Mobile Home Park,business,"1407 northlanecourt, Columbia City, IN 46725, USA",Columbia City,IN,46725,,,,,,,,,(260) 244-3003,,,A
08173a11-0e32-4410-bf06-cfcc885927cd,Miami Village Mobile Home Park,rv_park,"4614 E Old Trail Rd #48, Columbia City, IN 46725, USA",Columbia City,IN,46725,Whitley County,41.1631140,-85.4043660,OPERATIONAL,2.5,119,(260) 244-6447,https://m.mhvillage.com/Communities/MobileHomePark.php?key=12462,,Miami Village Mobile Home Park,business,"4614 E Old Trail Rd #48, Columbia City, IN 46725, USA",Columbia City,IN,46725,,,,,,,,,(260) 244-6447,,https://m.mhvillage.com/Communities/MobileHomePark.php?key=12462,A
dd67b175-d768-44ec-9e1f-7b7ec5fd52b6,Candlelight Village,,"3671 Candlelight Dr, Columbus, IN 47203, USA",Columbus,IN,47203,Bartholomew County,39.2405631,-85.8918907,OPERATIONAL,4.1,246,(812) 372-1932,https://yescommunities.com/community/candlelight-village,,Candlelight Village,business,"3671 Candlelight Dr, Columbus, IN 47203, USA",Columbus,IN,47203,,,,,,,,,(812) 372-1932,,https://yescommunities.com/community/candlelight-village,A
c0a55ee4-821e-4c04-8baa-693bbb744c11,CERA Sports Park & Campground,rv_park,"3989 S 525 E, Columbus, IN 47203, USA",Columbus,IN,47203,Bartholomew County,39.1624599,-85.8115518,OPERATIONAL,4.4,857,(812) 377-5849,http://www.ceraland.org/,,CERA Sports Park & Campground,business,"3989 S 525 E, Columbus, IN 47203, USA",Columbus,IN,47203,,,,,,,,,(812) 377-5849,,http://www.ceraland.org/,A
7d340a56-6313-41d8-9c8d-e7f3f8b383be,Ceraland Campground,campground,"3989 S 525 E, Columbus, IN 47203, USA",Columbus,IN,47203,Bartholomew County,39.1624440,-85.8139510,OPERATIONAL,4.2,65,(812) 377-5849,https://www.ceraland.org/,,Ceraland Campground,business,"3989 S 525 E, Columbus, IN 47203, USA",Columbus,IN,47203,,,,,,,,,(812) 377-5849,,https://www.ceraland.org/,A
f5158d1e-f272-49f5-a249-5934109fe136,Garden City Mobile Home Community,rv_park,"611 Garden St, Columbus, IN 47201, USA",Columbus,IN,47201,Bartholomew County,39.1854150,-85.9308989,OPERATIONAL,3.9,15,(812) 657-4624,,,Garden City Mobile Home Community,business,"611 Garden St, Columbus, IN 47201, USA",Columbus,IN,47201,,,,,,,,,(812) 657-4624,,,A
fc8e246b-0db5-415f-a60a-ef1f014da2b0,Heritage Heights,rv_park,"2895 Henry Lakes Blvd S, Columbus, IN 47201, USA",Columbus,IN,47201,Bartholomew County,39.2901475,-85.9571201,OPERATIONAL,3.5,486,(812) 526-4126,http://www.continentalcommunities.com/heritage-heights/,,Heritage Heights,business,"2895 Henry Lakes Blvd S, Columbus, IN 47201, USA",Columbus,IN,47201,,,,,,,,,(812) 526-4126,,http://www.continentalcommunities.com/heritage-heights/,A
1437ac26-4c9e-4e1d-87d6-1c7c1a27c09a,Homestead Mobile Home Park,rv_park,"2667 Milmar Ct, Columbus, IN 47203, USA",Columbus,IN,47203,Bartholomew County,39.2435302,-85.8942565,OPERATIONAL,3.9,112,(812) 372-5544,https://www.facebook.com/pages/Homestead-Mobile-Home-Park/120059064677467,,Homestead Mobile Home Park,business,"2667 Milmar Ct, Columbus, IN 47203, USA",Columbus,IN,47203,,,,,,,,,(812) 372-5544,,https://www.facebook.com/pages/Homestead-Mobile-Home-Park/120059064677467,A
466cbd1b-e82d-413d-badb-f5a186edf953,Moose Park Campground,campground,"286 County Rd 300 E, Columbus, IN 47203, USA",Columbus,IN,47203,Bartholomew County,39.2009802,-85.8585506,OPERATIONAL,4.0,21,(812) 372-1257,https://rvcampgroundhq.com/campground/indiana/moose-park-campground/,,Moose Park Campground,business,"286 County Rd 300 E, Columbus, IN 47203, USA",Columbus,IN,47203,,,,,,,,,(812) 372-1257,,https://rvcampgroundhq.com/campground/indiana/moose-park-campground/,A
49df4cd1-a141-4ba1-8a36-2e3c8d28cab8,Tannehill Pointe Mobile Home Park,rv_park,"3871 Mill Pl, Columbus, IN 47201, USA",Columbus,IN,47201,Bartholomew County,39.2976432,-85.9699234,OPERATIONAL,3.7,118,(812) 526-6064,https://yougotithomes.com/community/tannehill-pointe/,,Tannehill Pointe Mobile Home Park,business,"3871 Mill Pl, Columbus, IN 47201, USA",Columbus,IN,47201,,,,,,,,,(812) 526-6064,,https://yougotithomes.com/community/tannehill-pointe/,A
64174df8-2f64-4117-b603-d2baed9ce64d,Woods-N-Waters Kampground,rv_park,"8855 S 300 W, Columbus, IN 47201, USA",Columbus,IN,47201,Bartholomew County,39.1202937,-85.9664304,OPERATIONAL,4.2,260,(812) 342-1619,https://www.woods-n-waters.com/,,Woods-N-Waters Kampground,business,"8855 S 300 W, Columbus, IN 47201, USA",Columbus,IN,47201,,,,,,,,,(812) 342-1619,,https://www.woods-n-waters.com/,A
1375469f-b69f-4dbf-9bfa-159f32a1a640,Bear Creek Camp,campground,"7417 County Rd 720 S, Connersville, IN 47331, USA",Connersville,IN,47331,Fayette County,39.5396948,-85.1446954,OPERATIONAL,4.8,46,(513) 317-3941,https://camping.churchofjesuschrist.org/,,Bear Creek Camp,business,"7417 County Rd 720 S, Connersville, IN 47331, USA",Connersville,IN,47331,,,,,,,,,(513) 317-3941,,https://camping.churchofjesuschrist.org/,A
c90d3fc7-5f93-4c4a-af23-52c7d54d8014,Elephant Hill Mobile Home Park,rv_park,"1000 W 21st St # 93, Connersville, IN 47331, USA",Connersville,IN,47331,Fayette County,39.6578788,-85.1492309,OPERATIONAL,3.2,155,(765) 377-7329,,,Elephant Hill Mobile Home Park,business,"1000 W 21st St # 93, Connersville, IN 47331, USA",Connersville,IN,47331,,,,,,,,,(765) 377-7329,,,A
51888e24-391d-4c65-9b1b-e2b21b0a0706,Robinson's Whitewater River Campground,campground,"1614 IN-121, Connersville, IN 47331, USA",Connersville,IN,47331,Fayette County,39.6187025,-85.1470177,OPERATIONAL,4.3,290,(765) 825-4885,,,Robinson's Whitewater River Campground,business,"1614 IN-121, Connersville, IN 47331, USA",Connersville,IN,47331,,,,,,,,,(765) 825-4885,,,A
12c646bf-2adc-4e87-beee-11a675604c2a,Grand Trails RV Park,campground,"205 S Mulberry St, Corydon, IN 47112, USA",Corydon,IN,47112,Harrison County,38.2088806,-86.1245685,OPERATIONAL,3.8,88,(812) 738-9077,,,Grand Trails RV Park,business,"205 S Mulberry St, Corydon, IN 47112, USA",Corydon,IN,47112,,,,,,,,,(812) 738-9077,,,A
6276e9ac-7179-47ed-b19d-bad02dcdebcb,O'Bannon Woods State Park,campground,"7234 Old Forest Rd, Corydon, IN 47112, USA",Corydon,IN,47112,Harrison County,38.1865152,-86.2963131,OPERATIONAL,4.6,1021,(812) 738-8232,http://on.in.gov/obannonwoodssp,,O'Bannon Woods State Park,business,"7234 Old Forest Rd, Corydon, IN 47112, USA",Corydon,IN,47112,,,,,,,,,(812) 738-8232,,http://on.in.gov/obannonwoodssp,A
3238913c-96e5-4f66-b635-5125bb3b5ae2,Seven Oaks Pointe Mobile Home Park,rv_park,"1055 Old Forest Rd NW, Corydon, IN 47112, USA",Corydon,IN,47112,Harrison County,38.2187120,-86.1459430,OPERATIONAL,3.7,11,(812) 366-3110,https://yougotithomes.com/seven-oaks-pointe/,,Seven Oaks Pointe Mobile Home Park,business,"1055 Old Forest Rd NW, Corydon, IN 47112, USA",Corydon,IN,47112,,,,,,,,,(812) 366-3110,,https://yougotithomes.com/seven-oaks-pointe/,A
3848e501-8001-475a-b725-79ae5125c83a,Covington City Park,campground,"1 City Park Dr, Covington, IN 47932, USA",Covington,IN,47932,Fountain County,40.1479889,-87.3980343,OPERATIONAL,4.7,381,(765) 793-3423,http://facebook.com/covingtoncitypark,,Covington City Park,business,"1 City Park Dr, Covington, IN 47932, USA",Covington,IN,47932,,,,,,,,,(765) 793-3423,,http://facebook.com/covingtoncitypark,A
da488a17-e69b-4ae2-85ee-09e68faf0a7d,Cottonwood Village Mobile Home,rv_park,"671 N 225 W, Crawfordsville, IN 47933, USA",Crawfordsville,IN,47933,Montgomery County,40.0499877,-86.9493331,OPERATIONAL,3.4,74,,,,Cottonwood Village Mobile Home,business,"671 N 225 W, Crawfordsville, IN 47933, USA",Crawfordsville,IN,47933,,,,,,,,,,,,B
f69e3adc-0fa0-4d6d-a4b2-79a4df9943a2,Crawfordsville KOA Journey,rv_park,"1600 Lafayette Rd, Crawfordsville, IN 47933, USA",Crawfordsville,IN,47933,Montgomery County,40.0618659,-86.9071083,OPERATIONAL,4.1,468,(800) 562-4191,https://koa.com/campgrounds/crawfordsville/?utm_source=google&utm_medium=organic&utm_campaign=gbp,,Crawfordsville KOA Journey,business,"1600 Lafayette Rd, Crawfordsville, IN 47933, USA",Crawfordsville,IN,47933,,,,,,,,,(800) 562-4191,,https://koa.com/campgrounds/crawfordsville/?utm_source=google&utm_medium=organic&utm_campaign=gbp,A
f7376c57-b7fe-433b-8472-2a86f7fbf7b3,Imperial Estates,rv_park,"101 Mercedes Dr, Crawfordsville, IN 47933, USA",Crawfordsville,IN,47933,Montgomery County,40.0228980,-86.8908980,OPERATIONAL,3.5,95,(765) 362-0519,http://www.parkbridgehomes.com/communities/imperial-estates,,Imperial Estates,business,"101 Mercedes Dr, Crawfordsville, IN 47933, USA",Crawfordsville,IN,47933,,,,,,,,,(765) 362-0519,,http://www.parkbridgehomes.com/communities/imperial-estates,A
2057b706-192f-436f-a7d5-3547f795fd88,Sugar Creek Campground & Canoe Rentals,campground,"841 W 83 N, Crawfordsville, IN 47933, USA",Crawfordsville,IN,47933,Montgomery County,40.0512620,-86.9182590,OPERATIONAL,4.5,525,(765) 362-5528,http://www.sugarcreekcampground.com/,,Sugar Creek Campground & Canoe Rentals,business,"841 W 83 N, Crawfordsville, IN 47933, USA",Crawfordsville,IN,47933,,,,,,,,,(765) 362-5528,,http://www.sugarcreekcampground.com/,A
b308c94b-559a-488f-b535-a6202dbb1edb,Sugar Creek Mobile Home Park,rv_park,"1100 Lafayette Rd, Crawfordsville, IN 47933, USA",Crawfordsville,IN,47933,Montgomery County,40.0547561,-86.9031372,OPERATIONAL,3.7,15,,,,Sugar Creek Mobile Home Park,business,"1100 Lafayette Rd, Crawfordsville, IN 47933, USA",Crawfordsville,IN,47933,,,,,,,,,,,,B
a9cac76e-49c2-4666-801b-ffaf04b51197,Island Grove Manufactured Home Community,rv_park,"9151 N 1200 W, De Motte, IN 46310, USA",De Motte,IN,46310,Jasper County,41.1488660,-87.2739345,OPERATIONAL,3.9,90,(219) 345-4426,https://www.bayshorehomesales.com/communities/islandGrove?utm_campaign=WebsiteURL&utm_medium=organic&utm_source=GMB,,Island Grove Manufactured Home Community,business,"9151 N 1200 W, De Motte, IN 46310, USA",De Motte,IN,46310,,,,,,,,,(219) 345-4426,,https://www.bayshorehomesales.com/communities/islandGrove?utm_campaign=WebsiteURL&utm_medium=organic&utm_source=GMB,A
92316418-1fbd-4191-a0f8-823662515c80,Lake Holiday,campground,"11780 IN-10, De Motte, IN 46310, USA",De Motte,IN,46310,Jasper County,41.1504418,-87.2700666,OPERATIONAL,3.9,309,(219) 345-3132,http://www.lakeholidaycamp.com,,Lake Holiday,business,"11780 IN-10, De Motte, IN 46310, USA",De Motte,IN,46310,,,,,,,,,(219) 345-3132,,http://www.lakeholidaycamp.com,A
de3e4acc-b040-44e7-af91-b250ede1276d,Love's RV Stop,rv_park,"11207 West Dr #10, De Motte, IN 46310, USA",De Motte,IN,46310,Jasper County,41.1440680,-87.2575409,OPERATIONAL,4.4,88,(219) 987-2202,https://www.camplife.com/campground/Love%2527s+RV+Stop-Demotte+IN+394?utm_source=google&utm_medium=organic&utm_campaign=maps,,Love's RV Stop,business,"11207 West Dr #10, De Motte, IN 46310, USA",De Motte,IN,46310,,,,,,,,,(219) 987-2202,,https://www.camplife.com/campground/Love%2527s+RV+Stop-Demotte+IN+394?utm_source=google&utm_medium=organic&utm_campaign=maps,A
1c31b655-b319-463e-aa9d-bde2d50faba1,Neighbors of Demotte Trails,rv_park,"306 Mallard Dr SE, De Motte, IN 46310, USA",De Motte,IN,46310,Jasper County,41.1897560,-87.1822640,OPERATIONAL,5.0,3,(219) 228-8222,,,Neighbors of Demotte Trails,business,"306 Mallard Dr SE, De Motte, IN 46310, USA",De Motte,IN,46310,,,,,,,,,(219) 228-8222,,,A
8e213766-4cee-4c75-ada1-a55c994abe95,Ponderosa Sun Club,rv_park,"10600 N 400 E, De Motte, IN 46310, USA",De Motte,IN,46310,Newton County,41.1541050,-87.3170690,OPERATIONAL,4.7,157,(219) 345-2268,http://www.ponderosasunclub.com/,,Ponderosa Sun Club,business,"10600 N 400 E, De Motte, IN 46310, USA",De Motte,IN,46310,,,,,,,,,(219) 345-2268,,http://www.ponderosasunclub.com/,A
ff6cee00-3923-4040-be0c-fecc1e46ac29,Wheelock Lake Campground,campground,"3622 E Co Rd 200 S, Dillsboro, IN 47018, USA",Dillsboro,IN,47018,Ripley County,39.0439643,-85.1918563,OPERATIONAL,3.8,70,(812) 487-3855,https://www.campwheelock.com/,,Wheelock Lake Campground,business,"3622 E Co Rd 200 S, Dillsboro, IN 47018, USA",Dillsboro,IN,47018,,,,,,,,,(812) 487-3855,,https://www.campwheelock.com/,A
736221bb-0777-416e-93fe-8dd183c91a3c,Greene Sullivan State Forest,campground,"2551 IN-159, Dugger, IN 47848, USA",Dugger,IN,47848,Sullivan County,39.0448610,-87.2591572,OPERATIONAL,4.3,37,(812) 648-2810,http://www.in.gov/dnr/forestry/4821.htm,,Greene Sullivan State Forest,business,"2551 IN-159, Dugger, IN 47848, USA",Dugger,IN,47848,,,,,,,,,(812) 648-2810,,http://www.in.gov/dnr/forestry/4821.htm,A
f0f5195e-c60e-444d-a1f8-a9b79b339ecc,Section 600 Camping,campground,"040423200008000015, Earl Park, IN 47942, USA",Earl Park,IN,47942,Benton County,40.6900439,-87.4158132,OPERATIONAL,5.0,4,,,,Section 600 Camping,business,"040423200008000015, Earl Park, IN 47942, USA",Earl Park,IN,47942,,,,,,,,,,,,B
86bcabed-68ad-442c-b7b7-c1891c80b59f,Eaton Mobile Home Community,rv_park,"Lot 43, 600 S Fort Wayne Ave, Eaton, IN 47338, USA",Eaton,IN,47338,Delaware County,40.3366059,-85.3460502,OPERATIONAL,3.5,32,(765) 399-5004,,,Eaton Mobile Home Community,business,"Lot 43, 600 S Fort Wayne Ave, Eaton, IN 47338, USA",Eaton,IN,47338,,,,,,,,,(765) 399-5004,,,A
04f6033e-3246-4872-a023-bce960bb6020,Patoka Lake Fisherman's Campground,campground,"Eckerty, IN 47116, USA",Eckerty,IN,47116,Dubois County,38.4046863,-86.6832068,OPERATIONAL,4.7,30,(812) 338-5589,https://www.in.gov/dnr/state-parks/parks-lakes/patoka-lake/,,Patoka Lake Fisherman's Campground,business,"Eckerty, IN 47116, USA",Eckerty,IN,47116,,,,,,,,,(812) 338-5589,,https://www.in.gov/dnr/state-parks/parks-lakes/patoka-lake/,A
bbb2c648-a819-4c87-9dcb-b0c29db595e5,Patoka Lake Modern Campground,campground,"Unnamed Road, Eckerty, IN 47116, USA",Eckerty,IN,47116,Orange County,38.4055129,-86.6535181,OPERATIONAL,4.8,189,(812) 685-2464,https://www.in.gov/dnr/state-parks/parks-lakes/patoka-lake/,,Patoka Lake Modern Campground,business,"Unnamed Road, Eckerty, IN 47116, USA",Eckerty,IN,47116,,,,,,,,,(812) 685-2464,,https://www.in.gov/dnr/state-parks/parks-lakes/patoka-lake/,A
668bfe32-cb4d-4edf-b64a-9394b37dd48b,Whitaker Campground Camp Atterbury,campground,"3008 Old Hospital Rd, Edinburgh, IN 46124, USA",Edinburgh,IN,46124,Johnson County,39.3548805,-86.0264106,OPERATIONAL,4.5,148,(812) 526-1128,https://www.atterburymuscatatuck.in.ng.mil/Home/MWR.aspx,,Whitaker Campground Camp Atterbury,business,"3008 Old Hospital Rd, Edinburgh, IN 46124, USA",Edinburgh,IN,46124,,,,,,,,,(812) 526-1128,,https://www.atterburymuscatatuck.in.ng.mil/Home/MWR.aspx,A
6371ed87-f1fa-4ef5-af0e-4934afc39359,Miles Landing Campground,rv_park,"10311 New Harmony Rd, Elberfeld, IN 47613, USA",Elberfeld,IN,47613,Warrick County,38.0974518,-87.4361632,OPERATIONAL,4.6,221,(812) 457-6447,http://mileslanding.online/,,Miles Landing Campground,business,"10311 New Harmony Rd, Elberfeld, IN 47613, USA",Elberfeld,IN,47613,,,,,,,,,(812) 457-6447,,http://mileslanding.online/,A
6dec1f39-7cdf-4090-b6eb-0a99ba1dbdef,Eco Lake Park,,"9300 State Hwy 7, Elizabethtown, IN 47232, USA",Elizabethtown,IN,47232,Jennings County,39.1225696,-85.7568955,OPERATIONAL,4.3,67,(812) 346-2953,https://jcparksrec.com/amenities.php,,Eco Lake Park,business,"9300 State Hwy 7, Elizabethtown, IN 47232, USA",Elizabethtown,IN,47232,,,,,,,,,(812) 346-2953,,https://jcparksrec.com/amenities.php,A
c5414dbc-b7a4-4098-b61e-6f5ba529c27d,Gassaway Lake Campground,campground,"9355 N Private Rd 875 W, Elizabethtown, IN 47232, USA",Elizabethtown,IN,47232,Jennings County,39.1195081,-85.7769595,OPERATIONAL,4.8,37,(812) 579-6305,,,Gassaway Lake Campground,business,"9355 N Private Rd 875 W, Elizabethtown, IN 47232, USA",Elizabethtown,IN,47232,,,,,,,,,(812) 579-6305,,,A
306b6908-6fab-49aa-964b-d691fec1716f,Elkhart Campground,campground,"25608 Co Rd 4, Elkhart, IN 46514, USA",Elkhart,IN,46514,Elkhart County,41.7380596,-85.9588991,OPERATIONAL,4.4,724,(574) 264-2914,https://elkhartcampground.com/,,Elkhart Campground,business,"25608 Co Rd 4, Elkhart, IN 46514, USA",Elkhart,IN,46514,,,,,,,,,(574) 264-2914,,https://elkhartcampground.com/,A
fb263283-9844-482d-aec4-7129a45fc590,Elkhart Mobile Home Park,rv_park,"29200 Co Rd 20, Elkhart, IN 46517, USA",Elkhart,IN,46517,Elkhart County,41.6585327,-86.0263794,OPERATIONAL,3.9,57,(574) 295-7625,http://elkhart-park.poi.place/,,Elkhart Mobile Home Park,business,"29200 Co Rd 20, Elkhart, IN 46517, USA",Elkhart,IN,46517,,,,,,,,,(574) 295-7625,,http://elkhart-park.poi.place/,A
cd9d63ac-4bca-4012-aa46-ac82e9721a7a,Parke Place Estates,rv_park,"2231 Osolo Rd, Elkhart, IN 46514, USA",Elkhart,IN,46514,Elkhart County,41.7147743,-85.9501987,OPERATIONAL,3.8,263,(574) 266-0825,https://www.umh.com/community/parke-place/?utm_source=GMBlisting&utm_medium=organic,,Parke Place Estates,business,"2231 Osolo Rd, Elkhart, IN 46514, USA",Elkhart,IN,46514,,,,,,,,,(574) 266-0825,,https://www.umh.com/community/parke-place/?utm_source=GMBlisting&utm_medium=organic,A
2923d6a1-51d1-46bd-8282-7c4344a970fe,Southwood Manufactured Home Community,rv_park,"1500 IN-37, Elwood, IN 46036, USA",Elwood,IN,46036,Madison County,40.2635681,-85.8203348,OPERATIONAL,3.5,63,(765) 552-9520,,,Southwood Manufactured Home Community,business,"1500 IN-37, Elwood, IN 46036, USA",Elwood,IN,46036,,,,,,,,,(765) 552-9520,,,A
67e62362-c442-42d9-a20a-a626726a6cb7,Sycamore Springs Park,rv_park,"717 W Tunnel Hill Rd, English, IN 47118, USA",English,IN,47118,Crawford County,38.3143990,-86.4802870,OPERATIONAL,4.8,361,(812) 338-3846,https://sycamorespringspark.com/,,Sycamore Springs Park,business,"717 W Tunnel Hill Rd, English, IN 47118, USA",English,IN,47118,,,,,,,,,(812) 338-3846,,https://sycamorespringspark.com/,A
0d835c6e-da28-420b-be6f-b761f76c0317,Etna Green Mobile Home Park,rv_park,"208 S Main St, Etna Green, IN 46524, USA",Etna Green,IN,46524,Kosciusko County,41.2754898,-86.0526046,OPERATIONAL,3.4,47,(574) 635-6080,https://knightscommunities.com/etna-green-indiana-etna-green-mobile-home-park/,,Etna Green Mobile Home Park,business,"208 S Main St, Etna Green, IN 46524, USA",Etna Green,IN,46524,,,,,,,,,(574) 635-6080,,https://knightscommunities.com/etna-green-indiana-etna-green-mobile-home-park/,A
bbb8ada8-8cbd-4f72-b14f-93a7d19c7968,Burdette Park,,"5301 Nurrenbern Rd, Evansville, IN 47712, USA",Evansville,IN,47712,Vanderburgh County,37.9426920,-87.6402103,OPERATIONAL,4.5,1866,(812) 435-5602,http://www.burdettepark.org/,,Burdette Park,business,"5301 Nurrenbern Rd, Evansville, IN 47712, USA",Evansville,IN,47712,,,,,,,,,(812) 435-5602,,http://www.burdettepark.org/,A
f5051563-a1c2-4724-b9b9-51979d3efd19,Carolina Pointe Mobile Home Park,rv_park,"2850 Carolina Ave, Evansville, IN 47710, USA",Evansville,IN,47710,Vanderburgh County,38.0058248,-87.5852604,OPERATIONAL,3.4,100,(812) 422-3076,https://yougotithomes.com/carolina-pointe/,,Carolina Pointe Mobile Home Park,business,"2850 Carolina Ave, Evansville, IN 47710, USA",Evansville,IN,47710,,,,,,,,,(812) 422-3076,,https://yougotithomes.com/carolina-pointe/,A
9f8df4ca-1934-4277-ad8a-64059e5d2910,Grandin pointe,rv_park,"1905 Evanston Dr, Evansville, IN 47720, USA",Evansville,IN,47720,Vanderburgh County,38.0321473,-87.5911992,OPERATIONAL,5.0,1,,,,Grandin pointe,business,"1905 Evanston Dr, Evansville, IN 47720, USA",Evansville,IN,47720,,,,,,,,,,,,B
808bd8e2-ff9b-4bc2-8fff-a7f1801a5dbb,Grandin Pointe Mobile Home Park,rv_park,"5901 N St Joseph Ave, Evansville, IN 47720, USA",Evansville,IN,47720,Vanderburgh County,38.0333690,-87.5984726,OPERATIONAL,3.1,270,(812) 423-2487,https://yougotithomes.com/community/grandin-pointe/,,Grandin Pointe Mobile Home Park,business,"5901 N St Joseph Ave, Evansville, IN 47720, USA",Evansville,IN,47720,,,,,,,,,(812) 423-2487,,https://yougotithomes.com/community/grandin-pointe/,A
6589746f-5cec-4aa0-bfa7-412f7c053b14,Madison Pointe Mobile Home Park,rv_park,"4400 Cox Ave, Evansville, IN 47712, USA",Evansville,IN,47712,Vanderburgh County,37.9751895,-87.6292714,OPERATIONAL,4.1,8,(812) 424-1424,https://yougotithomes.com/community/madison-pointe/,,Madison Pointe Mobile Home Park,business,"4400 Cox Ave, Evansville, IN 47712, USA",Evansville,IN,47712,,,,,,,,,(812) 424-1424,,https://yougotithomes.com/community/madison-pointe/,A
a29370a5-ea2d-474f-8524-ba039b16be66,Mill Creek Pointe Mobile Home Park,rv_park,"5320 Big 10 Blvd, Evansville, IN 47720, USA",Evansville,IN,47720,Vanderburgh County,38.0283735,-87.5908566,OPERATIONAL,3.9,92,(812) 421-1024,https://yougotithomes.com/community/mill-creek-pointe/,,Mill Creek Pointe Mobile Home Park,business,"5320 Big 10 Blvd, Evansville, IN 47720, USA",Evansville,IN,47720,,,,,,,,,(812) 421-1024,,https://yougotithomes.com/community/mill-creek-pointe/,A
f8b73a08-ed93-4ebb-860c-2bc357ac1ad4,Pleasant Ridge,,"4901 Pleasant Ridge Dr, Evansville, IN 47711, USA",Evansville,IN,47711,Vanderburgh County,38.0221674,-87.4960534,OPERATIONAL,3.0,22,(812) 909-1121,https://yescommunities.com/community/Pleasant-Ridge,,Pleasant Ridge,business,"4901 Pleasant Ridge Dr, Evansville, IN 47711, USA",Evansville,IN,47711,,,,,,,,,(812) 909-1121,,https://yescommunities.com/community/Pleasant-Ridge,A
7f1b4810-098a-4020-99df-c7e78570ce48,Rocky Falls Campground & RV Park,campground,"11901 Deer Run Dr, Evansville, IN 47712, USA",Evansville,IN,47712,Posey County,37.9512886,-87.7015453,OPERATIONAL,3.7,135,(812) 746-7907,http://rockyfallsrvpark.com/,,Rocky Falls Campground & RV Park,business,"11901 Deer Run Dr, Evansville, IN 47712, USA",Evansville,IN,47712,,,,,,,,,(812) 746-7907,,http://rockyfallsrvpark.com/,A
46c333c4-0efc-41e0-8981-432d34690fbc,Town & Country MHC,rv_park,"7301 Everglades Dr, Evansville, IN 47720, USA",Evansville,IN,47720,Vanderburgh County,38.0425033,-87.6761245,OPERATIONAL,3.8,45,(812) 213-4857,https://www.mhccapitalllc.com/community/town-country/,,Town & Country MHC,business,"7301 Everglades Dr, Evansville, IN 47720, USA",Evansville,IN,47720,,,,,,,,,(812) 213-4857,,https://www.mhccapitalllc.com/community/town-country/,A
c89af656-5cc2-445d-8e02-4eb65e458a0e,Trailer Park Oakhill,rv_park,"528 Underhill Ct, Evansville, IN 47711, USA",Evansville,IN,47711,Vanderburgh County,37.9826894,-87.5349579,OPERATIONAL,2.6,22,,,,Trailer Park Oakhill,business,"528 Underhill Ct, Evansville, IN 47711, USA",Evansville,IN,47711,,,,,,,,,,,,B
45e9fb91-2165-48ac-8068-5394dcdb7b4e,Twin Lakes Manufactured Home Community,rv_park,"216 Deer Run, Evansville, IN 47712, USA",Evansville,IN,47712,Posey County,37.9246647,-87.7040622,OPERATIONAL,4.0,224,(812) 985-5775,https://www.bayshorehomesales.com/communities/twinLakesIN?utm_campaign=WebsiteURL&utm_medium=organic&utm_source=GMB,,Twin Lakes Manufactured Home Community,business,"216 Deer Run, Evansville, IN 47712, USA",Evansville,IN,47712,,,,,,,,,(812) 985-5775,,https://www.bayshorehomesales.com/communities/twinLakesIN?utm_campaign=WebsiteURL&utm_medium=organic&utm_source=GMB,A
b7dcc967-f7b6-450a-a9dc-5a1acca430c0,Vanderburgh 4-H Campground,campground,"201 E Boonville-New Harmony Rd, Evansville, IN 47725, USA",Evansville,IN,47725,Vanderburgh County,38.0923813,-87.5627628,OPERATIONAL,4.7,3,(812) 867-6217,https://vanderburgh4hcenter.com/?page_id=25,,Vanderburgh 4-H Campground,business,"201 E Boonville-New Harmony Rd, Evansville, IN 47725, USA",Evansville,IN,47725,,,,,,,,,(812) 867-6217,,https://vanderburgh4hcenter.com/?page_id=25,A
88360fd9-ee07-4ca2-ab46-0a702d770398,Walker Pointe Mobile Home Park,rv_park,"2500 Nebraska Ave, Evansville, IN 47720, USA",Evansville,IN,47720,Vanderburgh County,38.0130474,-87.6022278,OPERATIONAL,4.4,5,(812) 424-1424,https://yougotithomes.com/community/walker-pointe/,,Walker Pointe Mobile Home Park,business,"2500 Nebraska Ave, Evansville, IN 47720, USA",Evansville,IN,47720,,,,,,,,,(812) 424-1424,,https://yougotithomes.com/community/walker-pointe/,A
cb56b671-ea61-4989-9c36-0641826e609e,Waterford Pointe Mobile Home Park,rv_park,"2448 Saw Grass Dr, Evansville, IN 47715, USA",Evansville,IN,47715,Vanderburgh County,37.9439918,-87.4724637,OPERATIONAL,4.2,154,(812) 477-3655,https://yougotithomes.com/community/waterford-pointe/,,Waterford Pointe Mobile Home Park,business,"2448 Saw Grass Dr, Evansville, IN 47715, USA",Evansville,IN,47715,,,,,,,,,(812) 477-3655,,https://yougotithomes.com/community/waterford-pointe/,A
995d2316-e95f-44f0-b47d-a6d5e3498513,Oak Lake RV Resort,rv_park,"5310 E 900 N, Fair Oaks, IN 47943, USA",Fair Oaks,IN,47943,Newton County,41.1300397,-87.2893970,OPERATIONAL,4.5,381,(219) 306-8223,https://www.oaklakervresort.com/,,Oak Lake RV Resort,business,"5310 E 900 N, Fair Oaks, IN 47943, USA",Fair Oaks,IN,47943,,,,,,,,,(219) 306-8223,,https://www.oaklakervresort.com/,A
8dea6a84-d906-4eb4-bac7-8ab4838d19ee,Creekside Mobile home park,rv_park,"6480 N London Rd, Fairland, IN 46126, USA",Fairland,IN,46126,Shelby County,39.6162935,-85.9214139,OPERATIONAL,3.6,9,(317) 418-6967,,,Creekside Mobile home park,business,"6480 N London Rd, Fairland, IN 46126, USA",Fairland,IN,46126,,,,,,,,,(317) 418-6967,,,A
87f30543-2a62-4451-898f-5aad5c3759e2,Countyline Mobile Home Park,rv_park,"311 Lockerbie Pl, Fairmount, IN 46928, USA",Fairmount,IN,46928,Grant County,40.3807045,-85.6539935,OPERATIONAL,2.7,50,(765) 536-9647,http://www.countylinemhp.com/,,Countyline Mobile Home Park,business,"311 Lockerbie Pl, Fairmount, IN 46928, USA",Fairmount,IN,46928,,,,,,,,,(765) 536-9647,,http://www.countylinemhp.com/,A
0547a995-53b1-4f8c-adb5-702f2e10e652,Fair Oaks Estates Mobile Home & RV Park,rv_park,"OFFICE, 1400 N Elm St Lot 37, Fairmount, IN 46928, USA",Fairmount,IN,46928,Grant County,40.4283997,-85.6442106,OPERATIONAL,2.4,17,(765) 948-3788,https://fairoaksmobilerv.com/,,Fair Oaks Estates Mobile Home & RV Park,business,"OFFICE, 1400 N Elm St Lot 37, Fairmount, IN 46928, USA",Fairmount,IN,46928,,,,,,,,,(765) 948-3788,,https://fairoaksmobilerv.com/,A
94dbfd53-eeac-4e2b-b497-e495695a06ae,Hidden Lake Resort,rv_park,"11460 Strawtown Pike, Fairmount, IN 46928, USA",Fairmount,IN,46928,Grant County,40.3876360,-85.7770180,OPERATIONAL,4.5,142,(765) 948-4862,http://www.hiddenlakesresort.net/,,Hidden Lake Resort,business,"11460 Strawtown Pike, Fairmount, IN 46928, USA",Fairmount,IN,46928,,,,,,,,,(765) 948-4862,,http://www.hiddenlakesresort.net/,A
387e386f-8203-40d1-ba8a-d3cf0e0aea27,Cedar Manor,rv_park,"633 W 9th St, Ferdinand, IN 47532, USA",Ferdinand,IN,47532,Dubois County,38.2258460,-86.8687940,OPERATIONAL,3.7,7,(812) 848-2800,http://dhpmanagement.com/,,Cedar Manor,business,"633 W 9th St, Ferdinand, IN 47532, USA",Ferdinand,IN,47532,,,,,,,,,(812) 848-2800,,http://dhpmanagement.com/,A
0493be90-d49e-4dff-b7d8-07b3c2df120b,Quarry Lake Campground,campground,"736 S Co Rd 825 E, Fillmore, IN 46128, USA",Fillmore,IN,46128,Putnam County,39.6491775,-86.7027088,OPERATIONAL,4.5,107,(765) 386-7332,,,Quarry Lake Campground,business,"736 S Co Rd 825 E, Fillmore, IN 46128, USA",Fillmore,IN,46128,,,,,,,,,(765) 386-7332,,,A
6933790e-5295-4c8b-a4e8-8bb3a64b1320,Bachelor Runn Campground LLC,campground,"625 IN-75, Flora, IN 46929, USA",Flora,IN,46929,Carroll County,40.5564321,-86.5291978,OPERATIONAL,4.1,52,(765) 413-9000,http://bachelorrunncampgroundllc.godaddysites.com/,,Bachelor Runn Campground LLC,business,"625 IN-75, Flora, IN 46929, USA",Flora,IN,46929,,,,,,,,,(765) 413-9000,,http://bachelorrunncampgroundllc.godaddysites.com/,A
c3714249-4262-43fe-8be3-e132d72c2cd5,Damvue River Camp,campground,"12106 IN-156, Florence, IN 47020, USA",Florence,IN,47020,Switzerland County,38.7799180,-84.9871400,OPERATIONAL,4.5,24,(937) 903-2793,,,Damvue River Camp,business,"12106 IN-156, Florence, IN 47020, USA",Florence,IN,47020,,,,,,,,,(937) 903-2793,,,A
28bf4b56-1afe-4a26-a16f-76aeb600d1e7,Follow the River RV Resort,rv_park,"12273 Markland Town Rd, Florence, IN 47020, USA",Florence,IN,47020,Switzerland County,38.7830276,-84.9815110,OPERATIONAL,4.6,257,(812) 427-3330,http://www.followtheriverrvresort.com/?utm_source=google&utm_medium=wix_google_business_profile&utm_campaign=15834249130798482107,,Follow the River RV Resort,business,"12273 Markland Town Rd, Florence, IN 47020, USA",Florence,IN,47020,,,,,,,,,(812) 427-3330,,http://www.followtheriverrvresort.com/?utm_source=google&utm_medium=wix_google_business_profile&utm_campaign=15834249130798482107,A
47c28bed-96b2-4b59-a0d3-07ba5ef0ed07,Apple Valley Manufactured Home Community,rv_park,"10326 Old Leo Rd, Fort Wayne, IN 46825, USA",Fort Wayne,IN,46825,Allen County,41.1768790,-85.0732315,OPERATIONAL,3.7,47,(260) 483-4372,http://www.applevalleymhc.com/,,Apple Valley Manufactured Home Community,business,"10326 Old Leo Rd, Fort Wayne, IN 46825, USA",Fort Wayne,IN,46825,,,,,,,,,(260) 483-4372,,http://www.applevalleymhc.com/,A
4cb82710-d1f5-444a-8094-18f71639bf96,Carrington Pointe,rv_park,"7211 Carrington Blvd, Fort Wayne, IN 46818, USA",Fort Wayne,IN,46818,Allen County,41.1447025,-85.1998417,OPERATIONAL,3.5,301,(260) 497-0031,https://www.suncommunities.com/indiana/carrington-pointe?utm_source=google&utm_medium=organic&utm_campaign=gbp_listing,,Carrington Pointe,business,"7211 Carrington Blvd, Fort Wayne, IN 46818, USA",Fort Wayne,IN,46818,,,,,,,,,(260) 497-0031,,https://www.suncommunities.com/indiana/carrington-pointe?utm_source=google&utm_medium=organic&utm_campaign=gbp_listing,A
82f75439-b74e-49a5-b808-511ee0f9d02a,Cedarwood Trails Manufactured Home Community,rv_park,"6008 Moeller Rd, Fort Wayne, IN 46806, USA",Fort Wayne,IN,46806,Allen County,41.0517968,-85.0616141,OPERATIONAL,3.5,201,(260) 749-9724,https://www.bayshorehomesales.com/communities/cedarwoodtrailsin?utm_campaign=WebsiteURL&utm_medium=organic&utm_source=GMB,,Cedarwood Trails Manufactured Home Community,business,"6008 Moeller Rd, Fort Wayne, IN 46806, USA",Fort Wayne,IN,46806,,,,,,,,,(260) 749-9724,,https://www.bayshorehomesales.com/communities/cedarwoodtrailsin?utm_campaign=WebsiteURL&utm_medium=organic&utm_source=GMB,A
6e357a8f-1d7a-4f8c-a94c-d2bee1f23aed,Country Court Estates,rv_park,"10744 US-27 Lot 101, Fort Wayne, IN 46816, USA",Fort Wayne,IN,46816,Allen County,40.9856222,-85.0906014,OPERATIONAL,3.3,95,(260) 639-3223,,,Country Court Estates,business,"10744 US-27 Lot 101, Fort Wayne, IN 46816, USA",Fort Wayne,IN,46816,,,,,,,,,(260) 639-3223,,,A
5b58684e-903a-4473-9c3f-1ff352d73416,Countryside Village Fort Wayne,,"2320 W Washington Center Rd, Fort Wayne, IN 46818, USA",Fort Wayne,IN,46818,Allen County,41.1349963,-85.1719415,OPERATIONAL,3.1,215,(260) 489-3437,https://www.yescommunities.com/community/countryside-village-fort-wayne,,Countryside Village Fort Wayne,business,"2320 W Washington Center Rd, Fort Wayne, IN 46818, USA",Fort Wayne,IN,46818,,,,,,,,,(260) 489-3437,,https://www.yescommunities.com/community/countryside-village-fort-wayne,A
beea637b-ee25-4ff1-8d0b-0f12f89b04bc,Dupont Estates,rv_park,"10002 Wheatfield Ln, Fort Wayne, IN 46825, USA",Fort Wayne,IN,46825,Allen County,41.1774816,-85.0870978,OPERATIONAL,3.2,74,(260) 484-1971,https://www.dupontestates.com/,,Dupont Estates,business,"10002 Wheatfield Ln, Fort Wayne, IN 46825, USA",Fort Wayne,IN,46825,,,,,,,,,(260) 484-1971,,https://www.dupontestates.com/,A
96c822d8-b9d5-4b84-816a-9fce038f2183,Edgewood Estates,rv_park,"5330 Goshen Rd, Fort Wayne, IN 46818, USA",Fort Wayne,IN,46818,Allen County,41.1432489,-85.2101926,OPERATIONAL,3.3,184,(260) 489-4451,http://www.edgewoodrental.com/,,Edgewood Estates,business,"5330 Goshen Rd, Fort Wayne, IN 46818, USA",Fort Wayne,IN,46818,,,,,,,,,(260) 489-4451,,http://www.edgewoodrental.com/,A
b371b779-18d2-40ee-aae0-b907580359e3,Fort Wayne,rv_park,"2220 Dunkelberg Rd Lot 914, Fort Wayne, IN 46819, USA",Fort Wayne,IN,46819,Allen County,41.0025891,-85.1611475,OPERATIONAL,3.1,33,(260) 209-0337,https://rootsmg.com/community/fort_wayne_fort_wayne_in,,Fort Wayne,business,"2220 Dunkelberg Rd Lot 914, Fort Wayne, IN 46819, USA",Fort Wayne,IN,46819,,,,,,,,,(260) 209-0337,,https://rootsmg.com/community/fort_wayne_fort_wayne_in,A
53539a4b-f441-42ab-a472-4b2a122ee3ec,Glenbrook Mobile Home Park,rv_park,"3939 N Clinton St, Fort Wayne, IN 46805, USA",Fort Wayne,IN,46805,Allen County,41.1133950,-85.1333850,OPERATIONAL,3.9,69,(260) 484-3033,https://www.glenbrookmhc.com/,,Glenbrook Mobile Home Park,business,"3939 N Clinton St, Fort Wayne, IN 46805, USA",Fort Wayne,IN,46805,,,,,,,,,(260) 484-3033,,https://www.glenbrookmhc.com/,A
c14ac46e-f9ff-4644-8193-a2b64a4999e0,Glenridge Manor Mobile Home Park,rv_park,"7227 Moeller Rd, Fort Wayne, IN 46806, USA",Fort Wayne,IN,46806,Allen County,41.0587085,-85.0461192,OPERATIONAL,3.9,113,(260) 493-4243,https://www.glenridgemanor.com/,,Glenridge Manor Mobile Home Park,business,"7227 Moeller Rd, Fort Wayne, IN 46806, USA",Fort Wayne,IN,46806,,,,,,,,,(260) 493-4243,,https://www.glenridgemanor.com/,A
200c1679-9bc1-49a3-a248-126c44fc2068,Johnny Appleseed Park,,"1500 N Harry Baals Dr, Fort Wayne, IN 46805, USA",Fort Wayne,IN,46805,Allen County,41.1119989,-85.1192379,OPERATIONAL,4.5,1192,(260) 427-6720,http://www.fortwayneparks.org/,,Johnny Appleseed Park,business,"1500 N Harry Baals Dr, Fort Wayne, IN 46805, USA",Fort Wayne,IN,46805,,,,,,,,,(260) 427-6720,,http://www.fortwayneparks.org/,A
f048c2fb-969d-4d65-b188-261f4ed76ea6,McArthur Estates,rv_park,"3637 McArthur Dr, Fort Wayne, IN 46809, USA",Fort Wayne,IN,46809,Allen County,41.0078636,-85.1814657,OPERATIONAL,3.7,27,(260) 747-6558,,,McArthur Estates,business,"3637 McArthur Dr, Fort Wayne, IN 46809, USA",Fort Wayne,IN,46809,,,,,,,,,(260) 747-6558,,,A
2ff1c739-c6af-4e5a-b4a0-7bb5797ac7a9,Oak Creek,rv_park,"9721 Springvale Dr, Fort Wayne, IN 46825, USA",Fort Wayne,IN,46825,Allen County,41.1735923,-85.0887380,OPERATIONAL,3.2,105,(260) 483-3248,,,Oak Creek,business,"9721 Springvale Dr, Fort Wayne, IN 46825, USA",Fort Wayne,IN,46825,,,,,,,,,(260) 483-3248,,,A
454a6bc9-4ebf-4928-afb4-11e3d78979fd,Ridgebrook Estates,rv_park,"2737 W Washington Center Rd, Fort Wayne, IN 46818, USA",Fort Wayne,IN,46818,Allen County,41.1295461,-85.1785389,OPERATIONAL,3.4,479,(260) 233-6980,https://mysunrisecommunity.com/community/ridgebrook-hills/,,Ridgebrook Estates,business,"2737 W Washington Center Rd, Fort Wayne, IN 46818, USA",Fort Wayne,IN,46818,,,,,,,,,(260) 233-6980,,https://mysunrisecommunity.com/community/ridgebrook-hills/,A
81d13f21-a190-438e-bd66-ec5a57c82eff,River Camp Fort Wayne,campground,"8607 Winchester Rd, Fort Wayne, IN 46819, USA",Fort Wayne,IN,46819,Allen County,41.0077420,-85.1377600,OPERATIONAL,4.7,7,,http://rivercampfortwayne.com/,,River Camp Fort Wayne,business,"8607 Winchester Rd, Fort Wayne, IN 46819, USA",Fort Wayne,IN,46819,,,,,,,,,,,http://rivercampfortwayne.com/,B
a476de26-2cf4-48e9-8219-9faf1ee45cdd,Southern Hills Mobile Home Park,rv_park,"5415 Southern Ct Lot 30, Fort Wayne, IN 46806, USA",Fort Wayne,IN,46806,Allen County,41.0349612,-85.1252556,OPERATIONAL,4.2,25,(260) 484-3033,,,Southern Hills Mobile Home Park,business,"5415 Southern Ct Lot 30, Fort Wayne, IN 46806, USA",Fort Wayne,IN,46806,,,,,,,,,(260) 484-3033,,,A
59f05545-ba28-4326-9c37-28ad347c7a10,Southtown Mobile Home Community,rv_park,"7555 Decatur Rd, Fort Wayne, IN 46816, USA",Fort Wayne,IN,46816,Allen County,41.0160173,-85.1095834,OPERATIONAL,3.4,61,(260) 333-9996,,,Southtown Mobile Home Community,business,"7555 Decatur Rd, Fort Wayne, IN 46816, USA",Fort Wayne,IN,46816,,,,,,,,,(260) 333-9996,,,A
45b464ef-62d7-4443-a75a-d9fb607d488e,St. Marys Mobile Home Park,rv_park,"944 Elmer Ave, Fort Wayne, IN 46808, USA",Fort Wayne,IN,46808,Allen County,41.1013496,-85.1561090,OPERATIONAL,3.5,13,,,,St. Marys Mobile Home Park,business,"944 Elmer Ave, Fort Wayne, IN 46808, USA",Fort Wayne,IN,46808,,,,,,,,,,,,B
c623594f-61ed-443e-bdd0-468c2d97f969,Stonecrest II Manufactured Home Community,rv_park,"4831 Bade Dr, Fort Wayne, IN 46816, USA",Fort Wayne,IN,46816,Allen County,41.0209573,-85.0756863,OPERATIONAL,3.4,101,(260) 447-3611,https://www.bayshorehomesales.com/communities/stonecrestIIin?utm_campaign=WebsiteURL&utm_medium=organic&utm_source=GMB,,Stonecrest II Manufactured Home Community,business,"4831 Bade Dr, Fort Wayne, IN 46816, USA",Fort Wayne,IN,46816,,,,,,,,,(260) 447-3611,,https://www.bayshorehomesales.com/communities/stonecrestIIin?utm_campaign=WebsiteURL&utm_medium=organic&utm_source=GMB,A
e7ea6f3e-5923-4520-a286-0ab98a294f43,Village of North Oak,rv_park,"6000 N Oak Blvd, Fort Wayne, IN 46818, USA",Fort Wayne,IN,46818,Allen County,41.1351321,-85.1855669,OPERATIONAL,3.9,110,(260) 489-9402,http://village-oak.edan.io/,,Village of North Oak,business,"6000 N Oak Blvd, Fort Wayne, IN 46818, USA",Fort Wayne,IN,46818,,,,,,,,,(260) 489-9402,,http://village-oak.edan.io/,A
bf29ee61-9f8b-4395-b377-f5f6daf0db23,Waynedale Mobile Homes Inc,rv_park,"7515 Bluffton Rd, Fort Wayne, IN 46809, USA",Fort Wayne,IN,46809,Allen County,41.0123557,-85.1688172,OPERATIONAL,3.2,53,(260) 747-2727,,,Waynedale Mobile Homes Inc,business,"7515 Bluffton Rd, Fort Wayne, IN 46809, USA",Fort Wayne,IN,46809,,,,,,,,,(260) 747-2727,,,A
8af40481-8900-4a73-8379-ebf6fbad7a2d,Wells Street Mobile Home Park,rv_park,"3126 N Wells St Lot 1, Fort Wayne, IN 46808, USA",Fort Wayne,IN,46808,Allen County,41.1046170,-85.1461540,OPERATIONAL,2.6,128,(260) 482-1014,,,Wells Street Mobile Home Park,business,"3126 N Wells St Lot 1, Fort Wayne, IN 46808, USA",Fort Wayne,IN,46808,,,,,,,,,(260) 482-1014,,,A
f742f86a-d60a-4a5c-a263-aadd59d0139d,Indiana District UPCI Campground,campground,"1900 E Broadway St, Fortville, IN 46040, USA",Fortville,IN,46040,Madison County,39.9500487,-85.8143628,OPERATIONAL,4.9,168,(317) 485-5532,https://www.indianacamp.org/,,Indiana District UPCI Campground,business,"1900 E Broadway St, Fortville, IN 46040, USA",Fortville,IN,46040,,,,,,,,,(317) 485-5532,,https://www.indianacamp.org/,A
4eb54705-ccb1-4861-ab5c-988581065f48,Acorn Oaks RV Park,campground,"16614 IN-114, Francesville, IN 47946, USA",Francesville,IN,47946,Pulaski County,40.9355710,-86.9239310,OPERATIONAL,4.7,172,(219) 335-2850,http://www.acornoaksrvpark.com/,,Acorn Oaks RV Park,business,"16614 IN-114, Francesville, IN 47946, USA",Francesville,IN,47946,,,,,,,,,(219) 335-2850,,http://www.acornoaksrvpark.com/,A
253abc8e-9c2b-430d-9bc2-db95e93fe4c3,Camp Cullom,campground,"6815 W Co Rd 200 N, Frankfort, IN 46041, USA",Frankfort,IN,46041,Clinton County,40.3137649,-86.6334471,OPERATIONAL,4.7,200,(765) 296-2753,https://www.campcullom.org/,,Camp Cullom,business,"6815 W Co Rd 200 N, Frankfort, IN 46041, USA",Frankfort,IN,46041,,,,,,,,,(765) 296-2753,,https://www.campcullom.org/,A
48e0f96b-f897-4097-87a4-3f4f7b99432c,The Stewart Manor Mobile Home Park,rv_park,"1558 Rossville Ave, Frankfort, IN 46041, USA",Frankfort,IN,46041,Clinton County,40.2944730,-86.5238950,OPERATIONAL,3.6,54,(765) 659-3028,,,The Stewart Manor Mobile Home Park,business,"1558 Rossville Ave, Frankfort, IN 46041, USA",Frankfort,IN,46041,,,,,,,,,(765) 659-3028,,,A
8f8366ce-d2fd-473e-89f9-949521e41d05,Countryview Estates Mobile Home Community,rv_park,"1199 Hospital Rd #52, Franklin, IN 46131, USA",Franklin,IN,46131,Johnson County,39.4761797,-86.0805272,OPERATIONAL,3.0,252,(317) 736-8625,,,Countryview Estates Mobile Home Community,business,"1199 Hospital Rd #52, Franklin, IN 46131, USA",Franklin,IN,46131,,,,,,,,,(317) 736-8625,,,A
9dca41d2-1d5a-4c03-a5bc-18e55b7621df,Pennington Mobile Home Park,rv_park,"3090 N Morton St Lot #67, Franklin, IN 46131, USA",Franklin,IN,46131,Johnson County,39.5184435,-86.0792468,OPERATIONAL,4.2,109,(317) 736-7677,https://www.mobilehome.net/mobile-home-parks/51619-pennington-mobile-home-park-in-franklin-in,,Pennington Mobile Home Park,business,"3090 N Morton St Lot #67, Franklin, IN 46131, USA",Franklin,IN,46131,,,,,,,,,(317) 736-7677,,https://www.mobilehome.net/mobile-home-parks/51619-pennington-mobile-home-park-in-franklin-in,A
b1a5867b-fece-45e2-ac81-e2121bfd5626,Camp Kikthawenund,campground,"7651 W 500 N, Frankton, IN 46044, USA",Frankton,IN,46044,Madison County,40.1781733,-85.8166825,OPERATIONAL,4.3,29,(765) 552-7400,https://campreservation.com/160/Camps/199,,Camp Kikthawenund,business,"7651 W 500 N, Frankton, IN 46044, USA",Frankton,IN,46044,,,,,,,,,(765) 552-7400,,https://campreservation.com/160/Camps/199,A
820c4a67-0570-482b-8220-cd660d6204ad,Maple Hills Mobile Home Park,rv_park,"210 S Woodworth Ave # 128, Frankton, IN 46044, USA",Frankton,IN,46044,Madison County,40.2241600,-85.7636450,OPERATIONAL,3.1,40,(765) 754-7766,http://maple-home-park-frankton.jany.io/,,Maple Hills Mobile Home Park,business,"210 S Woodworth Ave # 128, Frankton, IN 46044, USA",Frankton,IN,46044,,,,,,,,,(765) 754-7766,,http://maple-home-park-frankton.jany.io/,A
59d77d9f-9a37-49d2-a5ec-488278661d21,"Old Mill Canoe Rental - Blue River Canoe, Kayak, Camp",campground,"5 US-150, Fredericksburg, IN 47120, USA",Fredericksburg,IN,47120,Washington County,38.4338791,-86.1921723,OPERATIONAL,4.9,282,(812) 472-3140,http://www.oldmillcanoerental.com/,,"Old Mill Canoe Rental - Blue River Canoe, Kayak, Camp",business,"5 US-150, Fredericksburg, IN 47120, USA",Fredericksburg,IN,47120,,,,,,,,,(812) 472-3140,,http://www.oldmillcanoerental.com/,A
3bf65788-894b-4a99-b146-5eff9715fa25,Jellystone Park™ Barton Lake,rv_park,"140 Ln 201 Barton Lake, Fremont, IN 46737, USA",Fremont,IN,46737,Steuben County,41.7514059,-85.0501750,OPERATIONAL,4.4,2264,(260) 833-1114,https://jellystonebartonlake.com/,,Jellystone Park™ Barton Lake,business,"140 Ln 201 Barton Lake, Fremont, IN 46737, USA",Fremont,IN,46737,,,,,,,,,(260) 833-1114,,https://jellystonebartonlake.com/,A
65b70de6-0a4b-48b8-9bc2-88c9acf94358,Pokagon State Park Campground Gate,campground,"Unnamed Road, Fremont, IN 46737, USA",Fremont,IN,46737,Steuben County,41.7109645,-85.0314650,OPERATIONAL,4.6,136,(260) 833-2012,https://indianastateparks.reserveamerica.com/camping/pokagon-state-park/r/campgroundDetails.do?contractCode=IN&parkId=570038,,Pokagon State Park Campground Gate,business,"Unnamed Road, Fremont, IN 46737, USA",Fremont,IN,46737,,,,,,,,,(260) 833-2012,,https://indianastateparks.reserveamerica.com/camping/pokagon-state-park/r/campgroundDetails.do?contractCode=IN&parkId=570038,A
76a13231-39be-4c76-9569-371a2259f6e8,Painter Creek Camp Resort,rv_park,"7380 W County Rd 700 S, French Lick, IN 47432, USA",French Lick,IN,47432,Orange County,38.4542504,-86.5966496,OPERATIONAL,4.4,64,(812) 936-7545,http://paintercreekcamp.com/,,Painter Creek Camp Resort,business,"7380 W County Rd 700 S, French Lick, IN 47432, USA",French Lick,IN,47432,,,,,,,,,(812) 936-7545,,http://paintercreekcamp.com/,A
5e11f875-154c-4c8a-b2f9-11e10aedd15f,Patoka Pines RV Campground and Boat Storage,campground,"7570 S Old State Rd 145, French Lick, IN 47432, USA",French Lick,IN,47432,Orange County,38.4457967,-86.6039067,OPERATIONAL,4.8,35,(812) 203-2725,http://patokapines.com/,,Patoka Pines RV Campground and Boat Storage,business,"7570 S Old State Rd 145, French Lick, IN 47432, USA",French Lick,IN,47432,,,,,,,,,(812) 203-2725,,http://patokapines.com/,A
0b7484b8-8239-4b8c-a684-81484d05a1e9,Sleeping Bear Retreat,campground,"2773 S County Rd 1000 W, French Lick, IN 47432, USA",French Lick,IN,47432,Orange County,38.5124619,-86.6450822,OPERATIONAL,4.3,46,(812) 865-6898,http://www.sleepingbearretreat.com/,,Sleeping Bear Retreat,business,"2773 S County Rd 1000 W, French Lick, IN 47432, USA",French Lick,IN,47432,,,,,,,,,(812) 865-6898,,http://www.sleepingbearretreat.com/,A
a8ef53be-b5bc-45a0-bff2-b11551f1ecb2,Woodland Hills Campground,campground,"8128 W County Rd 750 S, French Lick, IN 47432, USA",French Lick,IN,47432,Orange County,38.4469962,-86.6093813,OPERATIONAL,4.1,13,(812) 797-4290,,,Woodland Hills Campground,business,"8128 W County Rd 750 S, French Lick, IN 47432, USA",French Lick,IN,47432,,,,,,,,,(812) 797-4290,,,A
cdc2d9b7-1686-479e-84f6-f30326394c6d,Hudsons Old Mill Campground and Flea Market,campground,"7249 1st St, Friendship, IN 47021, USA",Friendship,IN,47021,Ripley County,38.9693914,-85.1486251,OPERATIONAL,4.6,110,(812) 667-5322,https://hudsonsoldmill.com/,,Hudsons Old Mill Campground and Flea Market,business,"7249 1st St, Friendship, IN 47021, USA",Friendship,IN,47021,,,,,,,,,(812) 667-5322,,https://hudsonsoldmill.com/,A
2a55bf79-3f29-4de4-8ef1-b08b72bdb373,Deer Creek Village,rv_park,"401 S Deer Creek St, Galveston, IN 46932, USA",Galveston,IN,46932,Cass County,40.5740651,-86.1834759,OPERATIONAL,4.5,80,(765) 233-5034,http://www.deercreekvillagemhc.com/,,Deer Creek Village,business,"401 S Deer Creek St, Galveston, IN 46932, USA",Galveston,IN,46932,,,,,,,,,(765) 233-5034,,http://www.deercreekvillagemhc.com/,A
8fbe6537-85b2-431c-862a-fe07cbcf5f35,Indian Springs Campground & Splash Springs Aqua Park,rv_park,"981 Co Rd 64, Garrett, IN 46738, USA",Garrett,IN,46738,DeKalb County,41.2960438,-85.1475560,OPERATIONAL,3.4,314,(260) 357-5572,http://www.indianspringsoutdoors.com/,,Indian Springs Campground & Splash Springs Aqua Park,business,"981 Co Rd 64, Garrett, IN 46738, USA",Garrett,IN,46738,,,,,,,,,(260) 357-5572,,http://www.indianspringsoutdoors.com/,A
c02d60b9-80fb-4832-80f7-f514b96b5a7a,North Pointe Crossing,rv_park,"1 E Edgewater Dr N, Garrett, IN 46738, USA",Garrett,IN,46738,DeKalb County,41.3644690,-85.1335090,OPERATIONAL,3.2,85,(260) 465-1000,,,North Pointe Crossing,business,"1 E Edgewater Dr N, Garrett, IN 46738, USA",Garrett,IN,46738,,,,,,,,,(260) 465-1000,,,A
55aa2d4a-7afb-4aa3-aec9-ba2d0f453913,Jordan Mobile Home Park,rv_park,"3650 W Ridge Rd, Gary, IN 46408, USA",Gary,IN,46408,Lake County,41.5505550,-87.3820498,OPERATIONAL,3.8,64,(219) 885-9654,https://knightscommunities.com/gary-indiana-jordan-mobile-home-park/,,Jordan Mobile Home Park,business,"3650 W Ridge Rd, Gary, IN 46408, USA",Gary,IN,46408,,,,,,,,,(219) 885-9654,,https://knightscommunities.com/gary-indiana-jordan-mobile-home-park/,A
5d3c11c1-93e4-4096-aeee-f579b17ce5ef,Miller's Junction Manufactured Home Community,rv_park,"6632 Melton Rd, Gary, IN 46403, USA",Gary,IN,46403,Lake County,41.5963612,-87.2583085,OPERATIONAL,3.9,55,(219) 318-1449,https://millersjunctionmhc.tenantcloud.com/,,Miller's Junction Manufactured Home Community,business,"6632 Melton Rd, Gary, IN 46403, USA",Gary,IN,46403,,,,,,,,,(219) 318-1449,,https://millersjunctionmhc.tenantcloud.com/,A
29120482-dfbe-471d-9cb6-3d6067bde594,Marbrook Campground,campground,"6690 E 600 S, Gas City, IN 46933, USA",Gas City,IN,46933,Grant County,40.4575000,-85.5500000,OPERATIONAL,4.0,209,(765) 674-4383,http://www.marbrookcampground.com/,,Marbrook Campground,business,"6690 E 600 S, Gas City, IN 46933, USA",Gas City,IN,46933,,,,,,,,,(765) 674-4383,,http://www.marbrookcampground.com/,A
802d722d-b0ea-4e1c-a449-fad6ba7f334c,Amishville USA,campground,"844 E 900 S, Geneva, IN 46740, USA",Geneva,IN,46740,Adams County,40.6129413,-84.9192991,OPERATIONAL,4.3,246,(260) 589-3536,,,Amishville USA,business,"844 E 900 S, Geneva, IN 46740, USA",Geneva,IN,46740,,,,,,,,,(260) 589-3536,,,A
5aa66a08-20a6-4813-be12-23f6e50dcd57,Brookside Manor,rv_park,"61108 Old County Rd 17, Goshen, IN 46526, USA",Goshen,IN,46526,Elkhart County,41.6035166,-85.8839742,OPERATIONAL,3.2,228,(574) 875-6315,https://www.suncommunities.com/indiana/brookside-manor?utm_source=google&utm_medium=organic&utm_campaign=gbp_listing,,Brookside Manor,business,"61108 Old County Rd 17, Goshen, IN 46526, USA",Goshen,IN,46526,,,,,,,,,(574) 875-6315,,https://www.suncommunities.com/indiana/brookside-manor?utm_source=google&utm_medium=organic&utm_campaign=gbp_listing,A
024b1085-7d94-4532-82d6-04461dcb25e0,Creekside Estates,rv_park,"909 N Indiana Ave, Goshen, IN 46528, USA",Goshen,IN,46528,Elkhart County,41.5976785,-85.8496374,OPERATIONAL,4.1,23,(574) 534-1787,,,Creekside Estates,business,"909 N Indiana Ave, Goshen, IN 46528, USA",Goshen,IN,46528,,,,,,,,,(574) 534-1787,,,A
f52ce609-223f-405f-99c1-4378b6202058,Elkhart County 4-H Fairgrounds,rv_park,"17746-D County Rd 34, Goshen, IN 46528, USA",Goshen,IN,46528,Elkhart County,41.5796014,-85.8065766,OPERATIONAL,4.5,2624,(574) 533-3247,http://www.4hfair.org/,,Elkhart County 4-H Fairgrounds,business,"17746-D County Rd 34, Goshen, IN 46528, USA",Goshen,IN,46528,,,,,,,,,(574) 533-3247,,http://www.4hfair.org/,A
a406a5e0-2be0-48a3-b553-c840f0016ad9,Roxbury Park,rv_park,"403 Post Rd, Goshen, IN 46526, USA",Goshen,IN,46526,Elkhart County,41.5906431,-85.8814060,OPERATIONAL,3.4,194,(574) 533-9916,https://www.suncommunities.com/indiana/roxbury-park?utm_source=google&utm_medium=organic&utm_campaign=gbp_listing,,Roxbury Park,business,"403 Post Rd, Goshen, IN 46526, USA",Goshen,IN,46526,,,,,,,,,(574) 533-9916,,https://www.suncommunities.com/indiana/roxbury-park?utm_source=google&utm_medium=organic&utm_campaign=gbp_listing,A
